$GPGGA,123033.000,2832.7552,N,07716.3729,E,2,8,0.99,208.2,M,-36.1,M,0000,0000*70
$GPGSA,A,3,07,28,17,30,01,13,11,06,,,,,1.31,0.99,0.86*02
$GPRMC,123033.000,A,2832.7552,N,07716.3729,E,0.05,180.58,170415,,,D*6A
$GPVTG,180.58,T,,M,0.05,N,0.10,K,D*38
$GPGGA,123034.000,2832.7552,N,07716.3729,E,2,8,0.99,208.2,M,-36.1,M,0000,0000*77
$GPGSA,A,3,07,28,17,30,01,13,11,06,,,,,1.31,0.99,0.86*02
$GPRMC,123034.000,A,2832.7552,N,07716.3729,E,0.03,180.58,170415,,,D*6B
$GPVTG,180.58,T,,M,0.03,N,0.06,K,D*39
$GPGGA,123035.000,2832.7552,N,07716.3729,E,2,8,0.99,208.2,M,-36.1,M,0000,0000*76
$GPGSA,A,3,07,28,17,30,01,13,11,06,,,,,1.31,0.99,0.86*02
$GPGSV,3,1,11,30,69,129,40,17,65,254,36,28,54,002,37,40,48,220,28*75
$GPGSV,3,2,11,07,36,138,25,01,36,070,34,13,33,280,35,11,28,052,25*77
$GPGSV,3,3,11,04,17,048,,06,12,187,30,15,09,308,*49
$GPRMC,123035.000,A,2832.7552,N,07716.3729,E,0.03,180.58,170415,,,D*6A
$GPVTG,180.58,T,,M,0.03,N,0.06,K,D*39
$GPGGA,123036.000,2832.7552,N,07716.3729,E,2,8,0.99,208.3,M,-36.1,M,0000,0000*74
$GPGSA,A,3,07,28,17,30,01,13,11,06,,,,,1.31,0.99,0.86*02
$GPRMC,123036.000,A,2832.7552,N,07716.3729,E,0.10,180.58,170415,,,D*6B
$GPVTG,180.58,T,,M,0.10,N,0.18,K,D*34
$GPGGA,123037.000,2832.7551,N,07716.3730,E,2,8,0.99,208.4,M,-36.1,M,0000,0000*79
$GPGSA,A,3,07,28,17,30,01,13,11,06,,,,,1.31,0.99,0.86*02
$GPRMC,123037.000,A,2832.7551,N,07716.3730,E,0.15,180.58,170415,,,D*64
$GPVTG,180.58,T,,M,0.15,N,0.28,K,D*32
$GPGGA,123038.000,2832.7551,N,07716.3730,E,2,8,0.99,208.5,M,-36.1,M,0000,0000*77
$GPGSA,A,3,07,28,17,30,01,13,11,06,,,,,1.31,0.99,0.86*02
$GPRMC,123038.000,A,2832.7551,N,07716.3730,E,0.42,180.58,170415,,,D*69
$GPVTG,180.58,T,,M,0.42,N,0.78,K,D*35
$GPGGA,123039.000,2832.7550,N,07716.3728,E,2,8,0.99,208.6,M,-36.1,M,0000,0000*7D
$GPGSA,A,3,07,28,17,30,01,13,11,06,,,,,1.31,0.99,0.86*02
$GPRMC,123039.000,A,2832.7550,N,07716.3728,E,0.39,180.58,170415,,,D*6C
$GPVTG,180.58,T,,M,0.39,N,0.72,K,D*33
$GPGGA,123040.000,2832.7550,N,07716.3728,E,2,8,0.99,208.4,M,-36.1,M,0000,0000*71
$GPGSA,A,3,07,28,17,30,01,13,11,06,,,,,1.31,0.99,0.86*02
$GPGSV,3,1,11,30,69,129,38,17,65,254,37,28,54,002,37,40,48,220,34*76
$GPGSV,3,2,11,07,36,138,34,01,36,070,31,13,33,280,32,11,28,052,26*76
$GPGSV,3,3,11,04,17,048,,06,12,187,28,15,09,308,*40
$GPRMC,123040.000,A,2832.7550,N,07716.3728,E,0.02,180.58,170415,,,D*6A
$GPVTG,180.58,T,,M,0.02,N,0.03,K,D*3D
$GPGGA,123041.000,2832.7550,N,07716.3729,E,2,8,0.99,208.5,M,-36.1,M,0000,0000*70
$GPGSA,A,3,07,28,17,30,01,13,11,06,,,,,1.31,0.99,0.86*02
$GPRMC,123041.000,A,2832.7550,N,07716.3729,E,0.02,180.58,170415,,,D*6A
$GPVTG,180.58,T,,M,0.02,N,0.03,K,D*3D
$GPGGA,123042.000,2832.7550,N,07716.3729,E,2,8,0.99,208.5,M,-36.1,M,0000,0000*73
$GPGSA,A,3,07,28,17,30,01,13,11,06,,,,,1.31,0.99,0.86*02
$GPRMC,123042.000,A,2832.7550,N,07716.3729,E,0.01,180.58,170415,,,D*6A
$GPVTG,180.58,T,,M,0.01,N,0.02,K,D*3F
$GPGGA,123043.000,2832.7550,N,07716.3729,E,2,8,1.02,208.5,M,-36.1,M,0000,0000*71
$GPGSA,A,3,07,28,17,30,01,13,11,06,,,,,1.96,1.02,1.67*02
$GPRMC,123043.000,A,2832.7550,N,07716.3729,E,0.16,180.58,170415,,,D*6D
$GPVTG,180.58,T,,M,0.16,N,0.30,K,D*38
$GPGGA,123044.000,2832.7550,N,07716.3729,E,2,8,0.99,208.5,M,-36.1,M,0000,0000*75
$GPGSA,A,3,07,28,17,30,01,13,11,06,,,,,1.31,0.99,0.86*02
$GPRMC,123044.000,A,2832.7550,N,07716.3729,E,0.11,180.58,170415,,,D*6D
$GPVTG,180.58,T,,M,0.11,N,0.20,K,D*3E
$GPGGA,123045.000,2832.7549,N,07716.3729,E,2,8,0.99,208.5,M,-36.1,M,0000,0000*7C
$GPGSA,A,3,07,28,17,30,01,13,11,06,,,,,1.31,0.99,0.86*02
$GPGSV,3,1,11,30,69,129,41,17,65,254,37,28,54,002,36,40,48,220,29*75
$GPGSV,3,2,11,07,36,138,33,01,36,070,36,13,33,280,33,11,28,052,24*75
$GPGSV,3,3,11,04,17,048,,06,12,187,29,15,09,308,*41
$GPRMC,123045.000,A,2832.7549,N,07716.3729,E,0.56,180.58,170415,,,D*67
$GPVTG,180.58,T,,M,0.56,N,1.04,K,D*3A
$GPGGA,123046.000,2832.7551,N,07716.3730,E,2,8,1.02,208.4,M,-36.1,M,0000,0000*7C
$GPGSA,A,3,07,28,17,30,01,13,11,06,,,,,1.96,1.02,1.67*02
$GPRMC,123046.000,A,2832.7551,N,07716.3730,E,0.46,180.58,170415,,,D*64
$GPVTG,180.58,T,,M,0.46,N,0.86,K,D*30
$GPGGA,123047.000,2832.7552,N,07716.3730,E,2,8,0.99,208.4,M,-36.1,M,0000,0000*7D
$GPGSA,A,3,07,28,17,30,01,13,11,06,,,,,1.31,0.99,0.86*02
$GPRMC,123047.000,A,2832.7552,N,07716.3730,E,0.16,180.58,170415,,,D*63
$GPVTG,180.58,T,,M,0.16,N,0.30,K,D*38
$GPGGA,123048.000,2832.7552,N,07716.3730,E,2,8,0.99,208.4,M,-36.1,M,0000,0000*72
$GPGSA,A,3,07,28,17,30,01,13,11,06,,,,,1.31,0.99,0.86*02
$GPRMC,123048.000,A,2832.7552,N,07716.3730,E,0.10,180.58,170415,,,D*6A
$GPVTG,180.58,T,,M,0.10,N,0.19,K,D*35
$GPGGA,123049.000,2832.7553,N,07716.3730,E,2,8,0.99,208.4,M,-36.1,M,0000,0000*72
$GPGSA,A,3,07,28,17,30,01,13,11,06,,,,,1.31,0.99,0.86*02
$GPRMC,123049.000,A,2832.7553,N,07716.3730,E,0.05,180.58,170415,,,D*6E
$GPVTG,180.58,T,,M,0.05,N,0.10,K,D*38
$GPGGA,123050.000,2832.7553,N,07716.3730,E,2,8,0.99,208.4,M,-36.1,M,0000,0000*7A
$GPGSA,A,3,07,28,17,30,01,13,11,06,,,,,1.31,0.99,0.86*02
$GPGSV,3,1,11,30,69,129,42,17,65,254,37,28,54,002,34,40,48,220,25*78
$GPGSV,3,2,11,07,36,138,22,01,36,070,35,13,33,280,34,11,28,052,22*77
$GPGSV,3,3,11,04,17,048,,06,12,187,28,15,09,308,*40
$GPRMC,123050.000,A,2832.7553,N,07716.3730,E,0.07,180.58,170415,,,D*64
$GPVTG,180.58,T,,M,0.07,N,0.13,K,D*39
$GPGGA,123051.000,2832.7553,N,07716.3730,E,2,8,0.99,208.4,M,-36.1,M,0000,0000*7B
$GPGSA,A,3,07,28,17,30,01,13,11,06,,,,,1.31,0.99,0.86*02
$GPRMC,123051.000,A,2832.7553,N,07716.3730,E,0.05,180.58,170415,,,D*67
$GPVTG,180.58,T,,M,0.05,N,0.09,K,D*30
$GPGGA,123052.000,2832.7553,N,07716.3730,E,2,8,0.99,208.4,M,-36.1,M,0000,0000*78
$GPGSA,A,3,07,28,17,30,01,13,11,06,,,,,1.31,0.99,0.86*02
$GPRMC,123052.000,A,2832.7553,N,07716.3730,E,0.12,180.58,170415,,,D*62
$GPVTG,180.58,T,,M,0.12,N,0.22,K,D*3F
$GPGGA,123053.000,2832.7552,N,07716.3730,E,2,8,0.99,208.5,M,-36.1,M,0000,0000*79
$GPGSA,A,3,07,28,17,30,01,13,11,06,,,,,1.31,0.99,0.86*02
$GPRMC,123053.000,A,2832.7552,N,07716.3730,E,0.08,180.58,170415,,,D*69
$GPVTG,180.58,T,,M,0.08,N,0.15,K,D*30
$GPGGA,123054.000,2832.7552,N,07716.3730,E,2,8,0.99,208.5,M,-36.1,M,0000,0000*7E
$GPGSA,A,3,07,28,17,30,01,13,11,06,,,,,1.31,0.99,0.86*02
$GPRMC,123054.000,A,2832.7552,N,07716.3730,E,0.09,180.58,170415,,,D*6F
$GPVTG,180.58,T,,M,0.09,N,0.16,K,D*32
$GPGGA,123055.000,2832.7552,N,07716.3730,E,2,8,0.99,208.5,M,-36.1,M,0000,0000*7F
$GPGSA,A,3,07,28,17,30,01,13,11,06,,,,,1.31,0.99,0.86*02
$GPGSV,3,1,11,30,69,129,41,17,66,255,36,28,54,002,36,40,48,220,27*78
$GPGSV,3,2,11,07,36,138,30,01,36,070,37,13,33,280,34,11,28,052,22*76
$GPGSV,3,3,11,04,17,048,,06,12,187,18,15,09,308,*43
$GPRMC,123055.000,A,2832.7552,N,07716.3730,E,0.04,180.58,170415,,,D*63
$GPVTG,180.58,T,,M,0.04,N,0.08,K,D*30
$GPGGA,123056.000,2832.7552,N,07716.3730,E,2,8,0.99,208.5,M,-36.1,M,0000,0000*7C
$GPGSA,A,3,07,28,17,30,01,13,11,06,,,,,1.31,0.99,0.86*02
$GPRMC,123056.000,A,2832.7552,N,07716.3730,E,0.13,180.58,170415,,,D*66
$GPVTG,180.58,T,,M,0.13,N,0.24,K,D*38
$GPGGA,123057.000,2832.7552,N,07716.3729,E,2,8,0.99,208.5,M,-36.1,M,0000,0000*75
$GPGSA,A,3,07,28,17,30,01,13,11,06,,,,,1.31,0.99,0.86*02
$GPRMC,123057.000,A,2832.7552,N,07716.3729,E,0.06,180.58,170415,,,D*6B
$GPVTG,180.58,T,,M,0.06,N,0.11,K,D*3A
$GPGGA,123058.000,2832.7552,N,07716.3730,E,2,9,0.87,208.5,M,-36.1,M,0000,0000*7C
$GPGSA,A,3,07,28,17,15,30,01,13,11,06,,,,1.18,0.87,0.80*04
$GPRMC,123058.000,A,2832.7552,N,07716.3730,E,0.13,180.58,170415,,,D*68
$GPVTG,180.58,T,,M,0.13,N,0.23,K,D*3F
$GPGGA,123059.000,2832.7552,N,07716.3730,E,2,9,0.87,208.5,M,-36.1,M,0000,0000*7D
$GPGSA,A,3,07,28,17,15,30,01,13,11,06,,,,1.18,0.87,0.80*04
$GPRMC,123059.000,A,2832.7552,N,07716.3730,E,0.03,180.58,170415,,,D*68
$GPVTG,180.58,T,,M,0.03,N,0.06,K,D*39
