$GPGGA,123148.000,2832.7501,N,07716.3722,E,2,9,0.87,207.0,M,-36.1,M,0000,0000*73
$GPGSA,A,3,07,28,17,15,30,01,13,11,06,,,,1.18,0.87,0.80*04
$GPRMC,123148.000,A,2832.7501,N,07716.3722,E,0.10,162.81,170415,,,D*66
$GPVTG,162.81,T,,M,0.10,N,0.19,K,D*3D
$GPGGA,123149.000,2832.7501,N,07716.3722,E,2,8,0.99,207.0,M,-36.1,M,0000,0000*7C
$GPGSA,A,3,07,28,17,30,01,13,11,06,,,,,1.31,0.99,0.86*02
$GPRMC,123149.000,A,2832.7501,N,07716.3722,E,0.06,163.19,170415,,,D*60
$GPVTG,163.19,T,,M,0.06,N,0.12,K,D*31
$GPGGA,123150.000,2832.7501,N,07716.3722,E,2,8,0.95,206.9,M,-36.1,M,0000,0000*70
$GPGSA,A,3,07,28,17,15,30,01,11,06,,,,,1.24,0.95,0.80*0A
$GPGSV,3,1,11,30,69,130,39,17,66,255,34,28,54,003,42,40,48,220,30*79
$GPGSV,3,2,11,01,36,069,31,07,35,139,26,13,33,280,20,11,28,052,38*73
$GPGSV,3,3,11,04,16,048,,06,12,187,29,15,09,308,17*46
$GPRMC,123150.000,A,2832.7501,N,07716.3722,E,0.05,163.19,170415,,,D*6B
$GPVTG,163.19,T,,M,0.05,N,0.10,K,D*30
$GPGGA,123151.000,2832.7501,N,07716.3723,E,2,8,0.99,206.9,M,-36.1,M,0000,0000*7C
$GPGSA,A,3,07,28,17,30,01,13,11,06,,,,,1.31,0.99,0.86*02
$GPRMC,123151.000,A,2832.7501,N,07716.3723,E,0.05,163.19,170415,,,D*6B
$GPVTG,163.19,T,,M,0.05,N,0.10,K,D*30
$GPGGA,123152.000,2832.7501,N,07716.3722,E,2,6,1.13,206.9,M,-36.1,M,0000,0000*73
$GPGSA,A,3,28,17,15,30,11,06,,,,,,,1.39,1.13,0.80*0F
$GPRMC,123152.000,A,2832.7501,N,07716.3722,E,0.09,163.19,170415,,,D*65
$GPVTG,163.19,T,,M,0.09,N,0.17,K,D*3B
$GPGGA,123153.000,2832.7501,N,07716.3722,E,2,7,1.95,206.9,M,-36.1,M,0000,0000*7D
$GPGSA,A,3,28,17,15,30,01,11,06,,,,,,2.98,1.95,2.25*05
$GPRMC,123153.000,A,2832.7501,N,07716.3722,E,0.10,163.19,170415,,,D*6C
$GPVTG,163.19,T,,M,0.10,N,0.18,K,D*3C
$GPGGA,123154.000,2832.7502,N,07716.3722,E,2,7,1.38,206.9,M,-36.1,M,0000,0000*7E
$GPGSA,A,3,07,28,17,30,01,11,06,,,,,,2.33,1.38,1.88*04
$GPRMC,123154.000,A,2832.7502,N,07716.3722,E,0.09,163.19,170415,,,D*60
$GPVTG,163.19,T,,M,0.09,N,0.17,K,D*3B
$GPGGA,123155.000,2832.7502,N,07716.3722,E,2,8,1.38,206.9,M,-36.1,M,0000,0000*70
$GPGSA,A,3,07,28,17,30,01,11,06,04,,,,,2.33,1.38,1.88*00
$GPGSV,3,1,11,30,69,130,39,17,66,255,31,28,54,003,44,40,48,220,30*7A
$GPGSV,3,2,11,01,36,069,29,07,35,139,30,13,33,279,20,11,28,051,37*77
$GPGSV,3,3,11,04,16,048,18,06,12,187,31,15,09,307,*4F
$GPRMC,123155.000,A,2832.7502,N,07716.3722,E,0.09,163.19,170415,,,D*61
$GPVTG,163.19,T,,M,0.09,N,0.17,K,D*3B
$GPGGA,123156.000,2832.7502,N,07716.3722,E,2,9,1.02,206.8,M,-36.1,M,0000,0000*7A
$GPGSA,A,3,07,28,17,30,01,13,11,06,04,,,,1.96,1.02,1.68*09
$GPRMC,123156.000,A,2832.7502,N,07716.3722,E,0.09,163.19,170415,,,D*62
$GPVTG,163.19,T,,M,0.09,N,0.17,K,D*3B
$GPGGA,123157.000,2832.7502,N,07716.3721,E,2,8,1.20,206.8,M,-36.1,M,0000,0000*79
$GPGSA,A,3,07,28,17,30,01,13,11,06,,,,,2.59,1.20,2.29*0B
$GPRMC,123157.000,A,2832.7502,N,07716.3721,E,0.09,163.19,170415,,,D*60
$GPVTG,163.19,T,,M,0.09,N,0.16,K,D*3A
$GPGGA,123158.000,2832.7502,N,07716.3721,E,2,9,0.96,206.8,M,-36.1,M,0000,0000*7B
$GPGSA,A,3,07,28,17,15,30,01,11,06,04,,,,1.64,0.96,1.33*00
$GPRMC,123158.000,A,2832.7502,N,07716.3721,E,0.09,163.19,170415,,,D*6F
$GPVTG,163.19,T,,M,0.09,N,0.16,K,D*3A
$GPGGA,123159.000,2832.7502,N,07716.3721,E,2,10,0.88,206.8,M,-36.1,M,0000,0000*4D
$GPGSA,A,3,07,28,17,15,30,01,13,11,06,04,,,1.59,0.88,1.32*02
$GPRMC,123159.000,A,2832.7502,N,07716.3721,E,0.10,163.19,170415,,,D*66
$GPVTG,163.19,T,,M,0.10,N,0.18,K,D*3C
$GPGGA,123200.000,2832.7503,N,07716.3721,E,2,9,0.88,206.8,M,-36.1,M,0000,0000*7B
$GPGSA,A,3,07,28,17,15,30,01,13,11,06,,,,1.59,0.88,1.32*06
$GPGSV,3,1,11,30,69,130,36,17,66,256,35,28,54,003,43,40,48,220,29*7D
$GPGSV,3,2,11,01,36,069,29,07,35,139,33,13,33,279,21,11,28,051,37*75
$GPGSV,3,3,11,04,16,048,16,06,12,187,33,15,09,307,17*45
$GPRMC,123200.000,A,2832.7503,N,07716.3721,E,0.06,163.19,170415,,,D*6F
$GPVTG,163.19,T,,M,0.06,N,0.11,K,D*32
$GPGGA,123201.000,2832.7503,N,07716.3721,E,2,9,1.08,206.8,M,-36.1,M,0000,0000*73
$GPGSA,A,3,07,28,17,15,30,01,13,11,06,,,,1.38,1.08,0.86*06
$GPRMC,123201.000,A,2832.7503,N,07716.3721,E,0.01,163.19,170415,,,D*69
$GPVTG,163.19,T,,M,0.01,N,0.02,K,D*37
$GPGGA,123202.000,2832.7503,N,07716.3721,E,2,9,1.02,206.8,M,-36.1,M,0000,0000*7A
$GPGSA,A,3,07,28,17,30,01,13,11,06,04,,,,1.96,1.02,1.68*09
$GPRMC,123202.000,A,2832.7503,N,07716.3721,E,0.01,163.19,170415,,,D*6A
$GPVTG,163.19,T,,M,0.01,N,0.01,K,D*34
$GPGGA,123203.000,2832.7503,N,07716.3721,E,2,9,1.02,206.8,M,-36.1,M,0000,0000*7B
$GPGSA,A,3,07,28,17,30,01,13,11,06,04,,,,1.96,1.02,1.68*09
$GPRMC,123203.000,A,2832.7503,N,07716.3721,E,0.02,163.19,170415,,,D*68
$GPVTG,163.19,T,,M,0.02,N,0.03,K,D*35
$GPGGA,123204.000,2832.7503,N,07716.3721,E,2,8,0.96,206.8,M,-36.1,M,0000,0000*71
$GPGSA,A,3,07,28,17,15,30,01,11,06,,,,,1.63,0.96,1.33*03
$GPRMC,123204.000,A,2832.7503,N,07716.3721,E,0.02,163.19,170415,,,D*6F
$GPVTG,163.19,T,,M,0.02,N,0.04,K,D*32
$GPGGA,123205.000,2832.7503,N,07716.3721,E,2,9,0.95,206.8,M,-36.1,M,0000,0000*72
$GPGSA,A,3,07,28,17,15,30,01,11,06,04,,,,1.24,0.95,0.80*0E
$GPGSV,3,1,11,30,69,130,38,17,66,256,35,28,54,003,41,40,48,220,31*78
$GPGSV,3,2,11,01,36,069,30,07,35,139,36,13,33,279,19,11,28,051,31*75
$GPGSV,3,3,11,04,16,048,16,06,12,187,25,15,09,307,16*43
$GPRMC,123205.000,A,2832.7503,N,07716.3721,E,0.01,163.19,170415,,,D*6D
$GPVTG,163.19,T,,M,0.01,N,0.02,K,D*37
$GPGGA,123206.000,2832.7503,N,07716.3721,E,2,8,0.95,206.8,M,-36.1,M,0000,0000*70
$GPGSA,A,3,07,28,17,15,30,01,11,06,,,,,1.24,0.95,0.80*0A
$GPRMC,123206.000,A,2832.7503,N,07716.3721,E,0.02,163.19,170415,,,D*6D
$GPVTG,163.19,T,,M,0.02,N,0.03,K,D*35
$GPGGA,123207.000,2832.7503,N,07716.3721,E,2,8,0.96,206.8,M,-36.1,M,0000,0000*72
$GPGSA,A,3,07,28,17,15,30,01,11,06,,,,,1.64,0.96,1.33*04
$GPRMC,123207.000,A,2832.7503,N,07716.3721,E,0.02,163.19,170415,,,D*6C
$GPVTG,163.19,T,,M,0.02,N,0.04,K,D*32
$GPGGA,123208.000,2832.7503,N,07716.3721,E,2,8,0.96,206.8,M,-36.1,M,0000,0000*7D
$GPGSA,A,3,07,28,17,15,30,01,11,06,,,,,1.64,0.96,1.33*04
$GPRMC,123208.000,A,2832.7503,N,07716.3721,E,0.02,163.19,170415,,,D*63
$GPVTG,163.19,T,,M,0.02,N,0.04,K,D*32
$GPGGA,123209.000,2832.7503,N,07716.3721,E,2,8,0.96,206.8,M,-36.1,M,0000,0000*7C
$GPGSA,A,3,07,28,17,15,30,01,11,06,,,,,1.64,0.96,1.33*04
$GPRMC,123209.000,A,2832.7503,N,07716.3721,E,0.02,163.19,170415,,,D*62
$GPVTG,163.19,T,,M,0.02,N,0.04,K,D*32