$GPGSA,M,3,07,28,17,13,30,01,15,11,,,,,2.16,1.26,1.76*01
$GPGSV,3,1,10,30,74,116,41,17,62,244,38,28,54,353,35,07,41,134,34*79
$GPGSV,3,2,10,01,37,077,39,13,33,287,28,11,32,056,30,15,07,312,17*77
$GPGSV,3,3,10,41,,,27,06,,,21*7D
$GPRMC,121840.000,A,2832.7914,N,07716.3732,E,0.07,179.32,170415,,,D*68
$GPVTG,179.32,T,,M,0.07,N,0.12,K,D*32
$GPGGA,121841.000,2832.7914,N,07716.3732,E,2,8,1.16,206.5,M,-36.1,M,0000,0000*74
$GPGSA,M,3,07,28,17,13,30,01,15,11,,,,,1.45,1.16,0.87*08
$GPRMC,121841.000,A,2832.7914,N,07716.3732,E,0.22,179.32,170415,,,D*6E
$GPVTG,179.32,T,,M,0.22,N,0.40,K,D*32
$GPGGA,121842.000,2832.7915,N,07716.3732,E,2,8,1.26,206.5,M,-36.1,M,0000,0000*75
$GPGSA,M,3,07,28,17,13,30,01,15,11,,,,,2.16,1.26,1.76*01
$GPRMC,121842.000,A,2832.7915,N,07716.3732,E,0.20,179.32,170415,,,D*6E
$GPVTG,179.32,T,,M,0.20,N,0.37,K,D*30
$GPGGA,121843.000,2832.7914,N,07716.3732,E,2,8,1.16,206.5,M,-36.1,M,0000,0000*76
$GPGSA,M,3,07,28,17,13,30,01,15,11,,,,,1.45,1.16,0.87*08
$GPRMC,121843.000,A,2832.7914,N,07716.3732,E,0.10,179.32,170415,,,D*6D
$GPVTG,179.32,T,,M,0.10,N,0.19,K,D*3F
$GPGGA,121844.000,2832.7914,N,07716.3732,E,2,7,1.22,206.5,M,-36.1,M,0000,0000*79
$GPGSA,M,3,07,28,17,30,01,15,11,,,,,,1.50,1.22,0.87*09
$GPRMC,121844.000,A,2832.7914,N,07716.3732,E,0.03,179.32,170415,,,D*68
$GPVTG,179.32,T,,M,0.03,N,0.06,K,D*33
$GPGGA,121845.000,2832.7914,N,07716.3732,E,2,7,1.22,206.5,M,-36.1,M,0000,0000*78
$GPGSA,M,3,07,28,17,30,01,15,11,,,,,,1.50,1.22,0.87*09
$GPGSV,3,1,10,30,74,116,40,17,62,244,38,28,54,353,32,07,41,134,34*7F
$GPGSV,3,2,10,01,37,077,37,13,33,287,19,11,32,056,38,15,07,312,17*73
$GPGSV,3,3,10,43,,,,06,,,18*70
$GPRMC,121845.000,A,2832.7914,N,07716.3732,E,0.10,179.32,170415,,,D*6B
$GPVTG,179.32,T,,M,0.10,N,0.18,K,D*3E
$GPGGA,121846.000,2832.7914,N,07716.3732,E,2,8,1.16,206.6,M,-36.1,M,0000,0000*70
$GPGSA,M,3,07,28,17,13,30,01,15,11,,,,,1.45,1.16,0.87*08
$GPRMC,121846.000,A,2832.7914,N,07716.3732,E,0.06,179.32,170415,,,D*6F
$GPVTG,179.32,T,,M,0.06,N,0.11,K,D*30
$GPGGA,121847.000,2832.7914,N,07716.3732,E,2,7,1.22,206.6,M,-36.1,M,0000,0000*79
$GPGSA,M,3,07,28,17,30,01,15,11,,,,,,1.50,1.22,0.87*09
$GPRMC,121847.000,A,2832.7914,N,07716.3732,E,0.05,179.32,170415,,,D*6D
$GPVTG,179.32,T,,M,0.05,N,0.10,K,D*32
$GPGGA,121848.000,2832.7914,N,07716.3732,E,2,7,1.32,206.6,M,-36.1,M,0000,0000*77
$GPGSA,M,3,07,28,17,30,01,15,11,,,,,,2.20,1.32,1.77*02
$GPRMC,121848.000,A,2832.7914,N,07716.3732,E,0.04,179.32,170415,,,D*63
$GPVTG,179.32,T,,M,0.04,N,0.07,K,D*35
$GPGGA,121849.000,2832.7914,N,07716.3732,E,2,7,1.22,206.6,M,-36.1,M,0000,0000*77
$GPGSA,M,3,07,28,17,30,01,15,11,,,,,,1.50,1.22,0.87*09
$GPRMC,121849.000,A,2832.7914,N,07716.3732,E,0.03,179.32,170415,,,D*65
$GPVTG,179.32,T,,M,0.03,N,0.05,K,D*30
$GPGGA,121850.000,2832.7914,N,07716.3732,E,2,7,1.22,206.6,M,-36.1,M,0000,0000*7F
$GPGSA,M,3,07,28,17,30,01,15,11,,,,,,1.50,1.22,0.87*09
$GPGSV,3,1,10,30,74,116,38,17,62,244,40,28,54,353,34,07,41,134,31*7C
$GPGSV,3,2,10,01,37,077,38,13,33,287,18,11,32,056,38,15,07,312,17*7D
$GPGSV,3,3,10,43,,,,06,,,18*70
$GPRMC,121850.000,A,2832.7914,N,07716.3732,E,0.05,179.32,170415,,,D*6B
$GPVTG,179.32,T,,M,0.05,N,0.10,K,D*32
$GPGGA,121851.000,2832.7914,N,07716.3732,E,2,7,1.22,206.7,M,-36.1,M,0000,0000*7F
$GPGSA,M,3,07,28,17,30,01,15,11,,,,,,1.50,1.22,0.87*09
$GPRMC,121851.000,A,2832.7914,N,07716.3732,E,0.05,179.32,170415,,,D*6A
$GPVTG,179.32,T,,M,0.05,N,0.09,K,D*3A
$GPGGA,121852.000,2832.7915,N,07716.3732,E,2,7,1.32,206.7,M,-36.1,M,0000,0000*7C
$GPGSA,M,3,07,28,17,30,01,15,11,,,,,,2.20,1.32,1.76*03
$GPRMC,121852.000,A,2832.7915,N,07716.3732,E,0.07,179.32,170415,,,D*6A
$GPVTG,179.32,T,,M,0.07,N,0.14,K,D*34
$GPGGA,121853.000,2832.7914,N,07716.3732,E,2,7,1.22,206.7,M,-36.1,M,0000,0000*7D
$GPGSA,M,3,07,28,17,30,01,15,11,,,,,,1.50,1.22,0.87*09
$GPRMC,121853.000,A,2832.7914,N,07716.3732,E,0.03,179.32,170415,,,D*6E
$GPVTG,179.32,T,,M,0.03,N,0.06,K,D*33
$GPGGA,121854.000,2832.7914,N,07716.3732,E,2,7,1.22,206.7,M,-36.1,M,0000,0000*7A
$GPGSA,M,3,07,28,17,30,01,15,11,,,,,,1.50,1.22,0.87*09
$GPRMC,121854.000,A,2832.7914,N,07716.3732,E,0.10,179.32,170415,,,D*6B
$GPVTG,179.32,T,,M,0.10,N,0.19,K,D*3F
$GPGGA,121855.000,2832.7914,N,07716.3732,E,2,8,1.15,206.6,M,-36.1,M,0000,0000*71
$GPGSA,M,3,07,28,17,13,30,01,15,11,,,,,1.45,1.15,0.87*0B
$GPGSV,3,1,10,30,74,116,39,17,62,244,38,28,54,353,27,07,41,134,31*70
$GPGSV,3,2,10,01,37,077,38,13,33,287,19,11,32,056,37,15,07,312,17*73
$GPGSV,3,3,10,45,,,,06,,,20*7D
$GPRMC,121855.000,A,2832.7914,N,07716.3732,E,0.03,179.32,170415,,,D*68
$GPVTG,179.32,T,,M,0.03,N,0.05,K,D*30
$GPGGA,121856.000,2832.7914,N,07716.3732,E,2,8,1.15,206.6,M,-36.1,M,0000,0000*72
$GPGSA,M,3,07,28,17,13,30,01,15,11,,,,,1.44,1.15,0.87*0A
$GPRMC,121856.000,A,2832.7914,N,07716.3732,E,0.12,179.32,170415,,,D*6B
$GPVTG,179.32,T,,M,0.12,N,0.22,K,D*35
$GPGGA,121857.000,2832.7914,N,07716.3732,E,2,7,1.22,206.6,M,-36.1,M,0000,0000*78
$GPGSA,M,3,07,28,17,30,01,15,11,,,,,,1.50,1.22,0.87*09
$GPRMC,121857.000,A,2832.7914,N,07716.3732,E,0.48,179.32,170415,,,D*65
$GPVTG,179.32,T,,M,0.48,N,0.89,K,D*3B
$GPGGA,121858.000,2832.7913,N,07716.3732,E,2,8,1.15,206.6,M,-36.1,M,0000,0000*7B
$GPGSA,M,3,07,28,17,13,30,01,15,11,,,,,1.44,1.15,0.87*0A
$GPRMC,121858.000,A,2832.7913,N,07716.3732,E,0.38,179.32,170415,,,D*6A
$GPVTG,179.32,T,,M,0.38,N,0.70,K,D*3A
$GPGGA,121859.000,2832.7912,N,07716.3733,E,2,7,1.22,206.6,M,-36.1,M,0000,0000*71
$GPGSA,M,3,07,28,17,30,01,15,11,,,,,,1.50,1.22,0.87*09
$GPRMC,121859.000,A,2832.7912,N,07716.3733,E,0.50,179.32,170415,,,D*65
$GPVTG,179.32,T,,M,0.50,N,0.93,K,D*39
$GPGGA,121900.000,2832.7911,N,07716.3735,E,2,7,1.22,206.6,M,-36.1,M,0000,0000*79
$GPGSA,M,3,07,28,17,30,01,15,11,,,,,,1.50,1.22,0.87*09
$GPGSV,3,1,10,30,74,116,39,17,62,244,34,28,54,353,36,07,41,134,30*7D
$GPGSV,3,2,10,01,37,077,35,13,33,287,17,11,32,056,38,15,07,312,15*7D
$GPGSV,3,3,10,46,,,,06,,,22*7C
$GPRMC,121900.000,A,2832.7911,N,07716.3735,E,0.31,179.32,170415,,,D*6A
$GPVTG,179.32,T,,M,0.31,N,0.58,K,D*39
$GPGGA,121901.000,2832.7911,N,07716.3735,E,2,7,1.22,206.6,M,-36.1,M,0000,0000*78
$GPGSA,M,3,07,28,17,30,01,15,11,,,,,,1.50,1.22,0.87*09
$GPRMC,121901.000,A,2832.7911,N,07716.3735,E,0.09,179.32,170415,,,D*60
$GPVTG,179.32,T,,M,0.09,N,0.16,K,D*38
$GPGGA,121902.000,2832.7911,N,07716.3736,E,2,7,1.22,206.6,M,-36.1,M,0000,0000*78
$GPGSA,M,3,07,28,17,30,01,15,11,,,,,,1.50,1.22,0.87*09
$GPRMC,121902.000,A,2832.7911,N,07716.3736,E,0.07,179.32,170415,,,D*6E
$GPVTG,179.32,T,,M,0.07,N,0.14,K,D*34
$GPGGA,121903.000,2832.7911,N,07716.3736,E,2,7,1.22,206.6,M,-36.1,M,0000,0000*79
$GPGSA,M,3,07,28,17,30,01,15,11,,,,,,1.50,1.22,0.87*09
$GPRMC,121903.000,A,2832.7911,N,07716.3736,E,0.02,179.32,170415,,,D*6A
$GPVTG,179.32,T,,M,0.02,N,0.04,K,D*30
$GPGGA,121904.000,2832.7910,N,07716.3736,E,2,7,1.22,206.6,M,-36.1,M,0000,0000*7F
$GPGSA,M,3,07,28,17,30,01,15,11,,,,,,1.50,1.22,0.87*09
$GPRMC,121904.000,A,2832.7910,N,07716.3736,E,0.03,179.32,170415,,,D*6D
$GPVTG,179.32,T,,M,0.03,N,0.06,K,D*33
$GPGGA,121905.000,2832.7910,N,07716.3736,E,2,7,1.22,206.6,M,-36.1,M,0000,0000*7E
$GPGSA,M,3,07,28,17,30,01,15,11,,,,,,1.50,1.22,0.87*09
$GPGSV,3,1,10,30,74,116,41,17,62,244,37,28,54,353,36,07,41,134,28*78
$GPGSV,3,2,10,01,37,077,37,13,33,287,18,11,32,056,39,15,07,312,15*71
$GPGSV,3,3,10,47,,,,06,,,27*78
$GPRMC,121905.000,A,2832.7910,N,07716.3736,E,0.04,179.32,170415,,,D*6B
$GPVTG,179.32,T,,M,0.04,N,0.07,K,D*35
$GPGGA,121906.000,2832.7910,N,07716.3736,E,2,7,1.22,206.6,M,-36.1,M,0000,0000*7D
$GPGSA,M,3,07,28,17,30,01,15,11,,,,,,1.50,1.22,0.87*09
$GPRMC,121906.000,A,2832.7910,N,07716.3736,E,0.02,179.32,170415,,,D*6E
$GPVTG,179.32,T,,M,0.02,N,0.04,K,D*30
$GPGGA,121907.000,2832.7911,N,07716.3736,E,2,7,1.22,206.6,M,-36.1,M,0000,0000*7D
$GPGSA,M,3,07,28,17,30,01,15,11,,,,,,1.50,1.22,0.87*09
$GPRMC,121907.000,A,2832.7911,N,07716.3736,E,0.03,179.32,170415,,,D*6F
$GPVTG,179.32,T,,M,0.03,N,0.06,K,D*33
$GPGGA,121908.000,2832.7911,N,07716.3736,E,2,7,1.22,206.7,M,-36.1,M,0000,0000*73
$GPGSA,M,3,07,28,17,30,01,15,11,,,,,,1.50,1.22,0.87*09
$GPRMC,121908.000,A,2832.7911,N,07716.3736,E,0.04,179.32,170415,,,D*67
$GPVTG,179.32,T,,M,0.04,N,0.07,K,D*35
$GPGGA,121909.000,2832.7911,N,07716.3736,E,2,8,1.25,206.7,M,-36.1,M,0000,0000*7A
$GPGSA,M,3,07,28,17,13,30,01,15,11,,,,,2.16,1.25,1.76*02
$GPRMC,121909.000,A,2832.7911,N,07716.3736,E,0.02,179.32,170415,,,D*60
$GPVTG,179.32,T,,M,0.02,N,0.04,K,D*30
$GPGGA,121910.000,2832.7911,N,07716.3736,E,2,7,1.22,206.7,M,-36.1,M,0000,0000*7A
$GPGSA,M,3,07,28,17,30,01,15,11,,,,,,1.50,1.22,0.87*09
$GPGSV,3,1,10,30,74,116,43,17,62,244,39,28,54,353,35,07,41,134,27*78
$GPGSV,3,2,10,01,37,077,37,13,33,287,21,11,32,056,40,15,07,312,16*76
$GPGSV,3,3,10,49,,,,06,,,27*76
$GPRMC,121910.000,A,2832.7911,N,07716.3736,E,0.01,179.32,170415,,,D*6B
$GPVTG,179.32,T,,M,0.01,N,0.01,K,D*36
$GPGGA,121911.000,2832.7911,N,07716.3736,E,2,7,1.22,206.7,M,-36.1,M,0000,0000*7B
$GPGSA,M,3,07,28,17,30,01,15,11,,,,,,1.50,1.22,0.87*09
$GPRMC,121911.000,A,2832.7911,N,07716.3736,E,0.03,179.32,170415,,,D*68
$GPVTG,179.32,T,,M,0.03,N,0.05,K,D*30
$GPGGA,121912.000,2832.7911,N,07716.3736,E,2,7,1.31,206.7,M,-36.1,M,0000,0000*7A
$GPGSA,M,3,07,28,17,30,01,15,11,,,,,,2.20,1.31,1.76*00
$GPRMC,121912.000,A,2832.7911,N,07716.3736,E,0.04,179.32,170415,,,D*6C
$GPVTG,179.32,T,,M,0.04,N,0.07,K,D*35
$GPGGA,121913.000,2832.7911,N,07716.3736,E,2,7,1.31,206.7,M,-36.1,M,0000,0000*7B
$GPGSA,M,3,07,28,17,30,01,15,11,,,,,,2.20,1.31,1.76*00
$GPRMC,121913.000,A,2832.7911,N,07716.3736,E,0.02,179.32,170415,,,D*6B
$GPVTG,179.32,T,,M,0.02,N,0.04,K,D*30
$GPGGA,121914.000,2832.7911,N,07716.3736,E,2,7,1.22,206.7,M,-36.1,M,0000,0000*7E
$GPGSA,M,3,07,28,17,30,01,15,11,,,,,,1.50,1.22,0.87*09
$GPRMC,121914.000,A,2832.7911,N,07716.3736,E,0.04,179.32,170415,,,D*6A
$GPVTG,179.32,T,,M,0.04,N,0.08,K,D*3A
