$GPGGA,122015.000,2832.7877,N,07716.3727,E,2,9,0.89,205.4,M,-36.1,M,0000,0000*7A
$GPGSA,A,3,07,28,17,30,01,15,11,06,04,,,,1.17,0.89,0.76*0A
$GPGSV,3,1,11,30,73,118,42,17,62,245,35,28,54,354,40,40,48,220,32*71
$GPGSV,3,2,11,07,40,135,33,01,37,076,39,13,33,286,17,11,32,055,34*7C
$GPGSV,3,3,11,04,19,052,17,15,08,312,16,06,08,189,27*44
$GPRMC,122015.000,A,2832.7877,N,07716.3727,E,0.07,182.73,170415,,,D*62
$GPVTG,182.73,T,,M,0.07,N,0.13,K,D*32
$GPGGA,122016.000,2832.7877,N,07716.3727,E,2,9,0.89,205.4,M,-36.1,M,0000,0000*79
$GPGSA,A,3,07,28,17,30,01,15,11,06,04,,,,1.17,0.89,0.76*0A
$GPRMC,122016.000,A,2832.7877,N,07716.3727,E,0.02,182.73,170415,,,D*64
$GPVTG,182.73,T,,M,0.02,N,0.03,K,D*36
$GPGGA,122017.000,2832.7877,N,07716.3727,E,2,9,0.89,205.4,M,-36.1,M,0000,0000*78
$GPGSA,A,3,07,28,17,30,01,15,11,06,04,,,,1.17,0.89,0.76*0A
$GPRMC,122017.000,A,2832.7877,N,07716.3727,E,0.02,182.73,170415,,,D*65
$GPVTG,182.73,T,,M,0.02,N,0.04,K,D*31
$GPGGA,122018.000,2832.7877,N,07716.3727,E,2,9,0.89,205.4,M,-36.1,M,0000,0000*77
$GPGSA,A,3,07,28,17,30,01,15,11,06,04,,,,1.47,0.89,1.17*09
$GPRMC,122018.000,A,2832.7877,N,07716.3727,E,0.04,182.73,170415,,,D*6C
$GPVTG,182.73,T,,M,0.04,N,0.07,K,D*34
$GPGGA,122019.000,2832.7877,N,07716.3727,E,2,9,0.89,205.4,M,-36.1,M,0000,0000*76
$GPGSA,A,3,07,28,17,30,01,15,11,06,04,,,,1.17,0.89,0.76*0A
$GPRMC,122019.000,A,2832.7877,N,07716.3727,E,0.07,182.73,170415,,,D*6E
$GPVTG,182.73,T,,M,0.07,N,0.13,K,D*32
$GPGGA,122020.000,2832.7877,N,07716.3727,E,2,9,0.89,205.4,M,-36.1,M,0000,0000*7C
$GPGSA,A,3,07,28,17,30,01,15,11,06,04,,,,1.17,0.89,0.76*0A
$GPGSV,3,1,11,30,73,118,42,17,62,245,32,28,54,355,41,40,48,220,33*77
$GPGSV,3,2,11,07,40,135,35,01,37,076,39,13,33,286,17,11,32,055,33*7D
$GPGSV,3,3,11,04,19,052,18,15,08,312,16,06,08,189,24*48
$GPRMC,122020.000,A,2832.7877,N,07716.3727,E,0.06,182.73,170415,,,D*65
$GPVTG,182.73,T,,M,0.06,N,0.12,K,D*32
$GPGGA,122021.000,2832.7877,N,07716.3727,E,2,9,0.89,205.4,M,-36.1,M,0000,0000*7D
$GPGSA,A,3,07,28,17,30,01,15,11,06,04,,,,1.17,0.89,0.76*0A
$GPRMC,122021.000,A,2832.7877,N,07716.3727,E,0.11,182.73,170415,,,D*62
$GPVTG,182.73,T,,M,0.11,N,0.20,K,D*35
$GPGGA,122022.000,2832.7877,N,07716.3726,E,2,9,0.89,205.4,M,-36.1,M,0000,0000*7F
$GPGSA,A,3,07,28,17,30,01,15,11,06,04,,,,1.17,0.89,0.76*0A
$GPRMC,122022.000,A,2832.7877,N,07716.3726,E,0.10,182.73,170415,,,D*61
$GPVTG,182.73,T,,M,0.10,N,0.19,K,D*3E
$GPGGA,122023.000,2832.7877,N,07716.3726,E,2,9,0.89,205.3,M,-36.1,M,0000,0000*79
$GPGSA,A,3,07,28,17,30,01,15,11,06,04,,,,1.17,0.89,0.76*0A
$GPRMC,122023.000,A,2832.7877,N,07716.3726,E,0.05,182.73,170415,,,D*64
$GPVTG,182.73,T,,M,0.05,N,0.10,K,D*33
$GPGGA,122024.000,2832.7877,N,07716.3726,E,2,9,0.89,205.3,M,-36.1,M,0000,0000*7E
$GPGSA,A,3,07,28,17,30,01,15,11,06,04,,,,1.47,0.89,1.17*09
$GPRMC,122024.000,A,2832.7877,N,07716.3726,E,0.04,182.73,170415,,,D*62
$GPVTG,182.73,T,,M,0.04,N,0.07,K,D*34
$GPGGA,122025.000,2832.7877,N,07716.3726,E,2,9,0.89,205.4,M,-36.1,M,0000,0000*78
$GPGSA,A,3,07,28,17,30,01,15,11,06,04,,,,1.48,0.89,1.17*06
$GPGSV,3,1,11,30,73,118,42,17,62,245,30,28,54,355,40,40,48,220,29*7F
$GPGSV,3,2,11,07,40,135,37,01,37,076,38,13,33,286,16,11,32,055,29*74
$GPGSV,3,3,11,04,19,052,18,15,08,312,15,06,08,189,23*4C
$GPRMC,122025.000,A,2832.7877,N,07716.3726,E,0.02,182.73,170415,,,D*65
$GPVTG,182.73,T,,M,0.02,N,0.04,K,D*31
$GPGGA,122026.000,2832.7877,N,07716.3726,E,2,9,0.89,205.4,M,-36.1,M,0000,0000*7B
$GPGSA,A,3,07,28,17,30,01,15,11,06,04,,,,1.17,0.89,0.76*0A
$GPRMC,122026.000,A,2832.7877,N,07716.3726,E,0.04,182.73,170415,,,D*60
$GPVTG,182.73,T,,M,0.04,N,0.07,K,D*34
$GPGGA,122027.000,2832.7877,N,07716.3726,E,2,9,0.89,205.4,M,-36.1,M,0000,0000*7A
$GPGSA,A,3,07,28,17,30,01,15,11,06,04,,,,1.47,0.89,1.17*09
$GPRMC,122027.000,A,2832.7877,N,07716.3726,E,0.02,182.73,170415,,,D*67
$GPVTG,182.73,T,,M,0.02,N,0.03,K,D*36
$GPGGA,122028.000,2832.7877,N,07716.3726,E,2,8,1.25,205.4,M,-36.1,M,0000,0000*73
$GPGSA,A,3,07,28,17,30,01,15,11,04,,,,,2.09,1.25,1.68*09
$GPRMC,122028.000,A,2832.7877,N,07716.3726,E,0.02,182.73,170415,,,D*68
$GPVTG,182.73,T,,M,0.02,N,0.03,K,D*36
$GPGGA,122029.000,2832.7877,N,07716.3726,E,2,9,0.89,205.4,M,-36.1,M,0000,0000*74
$GPGSA,A,3,07,28,17,30,01,15,11,06,04,,,,1.47,0.89,1.17*09
$GPRMC,122029.000,A,2832.7877,N,07716.3726,E,0.01,182.73,170415,,,D*6A
$GPVTG,182.73,T,,M,0.01,N,0.02,K,D*34
$GPGGA,122030.000,2832.7877,N,07716.3726,E,2,9,0.89,205.4,M,-36.1,M,0000,0000*7C
$GPGSA,A,3,07,28,17,30,01,15,11,06,04,,,,1.48,0.89,1.17*06
$GPGSV,3,1,11,30,73,118,41,17,62,245,29,28,54,355,38,40,48,220,28*7A
$GPGSV,3,2,11,07,40,135,37,01,37,076,36,13,33,286,16,11,32,055,28*7B
$GPGSV,3,3,11,04,19,052,17,15,08,312,15,06,08,188,19*4B
$GPRMC,122030.000,A,2832.7877,N,07716.3726,E,0.01,182.73,170415,,,D*62
$GPVTG,182.73,T,,M,0.01,N,0.03,K,D*35
$GPGGA,122031.000,2832.7877,N,07716.3726,E,2,9,0.89,205.4,M,-36.1,M,0000,0000*7D
$GPGSA,A,3,07,28,17,30,01,15,11,06,04,,,,1.17,0.89,0.76*0A
$GPRMC,122031.000,A,2832.7877,N,07716.3726,E,0.02,182.73,170415,,,D*60
$GPVTG,182.73,T,,M,0.02,N,0.03,K,D*36
$GPGGA,122032.000,2832.7877,N,07716.3726,E,2,9,0.89,205.3,M,-36.1,M,0000,0000*79
$GPGSA,A,3,07,28,17,30,01,15,11,06,04,,,,1.47,0.89,1.17*09
$GPRMC,122032.000,A,2832.7877,N,07716.3726,E,0.01,182.73,170415,,,D*60
$GPVTG,182.73,T,,M,0.01,N,0.02,K,D*34
$GPGGA,122033.000,2832.7877,N,07716.3726,E,2,9,0.89,205.4,M,-36.1,M,0000,0000*7F
$GPGSA,A,3,07,28,17,30,01,15,11,06,04,,,,1.47,0.89,1.17*09
$GPRMC,122033.000,A,2832.7877,N,07716.3726,E,0.02,182.73,170415,,,D*62
$GPVTG,182.73,T,,M,0.02,N,0.04,K,D*31
$GPGGA,122034.000,2832.7877,N,07716.3726,E,2,9,0.89,205.3,M,-36.1,M,0000,0000*7F
$GPGSA,A,3,07,28,17,30,01,15,11,06,04,,,,1.47,0.89,1.17*09
$GPRMC,122034.000,A,2832.7877,N,07716.3726,E,0.01,182.73,170415,,,D*66
$GPVTG,182.73,T,,M,0.01,N,0.02,K,D*34
$GPGGA,122035.000,2832.7877,N,07716.3726,E,2,9,0.89,205.4,M,-36.1,M,0000,0000*79
$GPGSA,A,3,07,28,17,30,01,15,11,06,04,,,,1.47,0.89,1.17*09
$GPGSV,3,1,11,30,73,118,41,17,62,245,27,28,54,355,36,40,48,220,28*7A
$GPGSV,3,2,11,07,40,135,34,01,37,076,38,13,33,286,16,11,31,055,32*7E
$GPGSV,3,3,11,04,19,052,16,15,08,312,15,06,08,188,18*4B
$GPRMC,122035.000,A,2832.7877,N,07716.3726,E,0.01,182.73,170415,,,D*67
$GPVTG,182.73,T,,M,0.01,N,0.01,K,D*37
$GPGGA,122036.000,2832.7877,N,07716.3726,E,2,9,0.89,205.4,M,-36.1,M,0000,0000*7A
$GPGSA,A,3,07,28,17,30,01,15,11,06,04,,,,1.47,0.89,1.17*09
$GPRMC,122036.000,A,2832.7877,N,07716.3726,E,0.02,182.73,170415,,,D*67
$GPVTG,182.73,T,,M,0.02,N,0.05,K,D*30
$GPGGA,122037.000,2832.7877,N,07716.3726,E,2,9,0.89,205.4,M,-36.1,M,0000,0000*7B
$GPGSA,A,3,07,28,17,30,01,15,11,06,04,,,,1.47,0.89,1.17*09
$GPRMC,122037.000,A,2832.7877,N,07716.3726,E,0.04,182.73,170415,,,D*60
$GPVTG,182.73,T,,M,0.04,N,0.07,K,D*34
$GPGGA,122038.000,2832.7877,N,07716.3726,E,2,8,1.20,205.4,M,-36.1,M,0000,0000*77
$GPGSA,A,3,07,28,17,30,01,11,06,04,,,,,1.46,1.20,0.83*02
$GPRMC,122038.000,A,2832.7877,N,07716.3726,E,0.01,182.73,170415,,,D*6A
$GPVTG,182.73,T,,M,0.01,N,0.02,K,D*34
$GPGGA,122039.000,2832.7877,N,07716.3726,E,2,8,1.27,205.4,M,-36.1,M,0000,0000*71
$GPGSA,A,3,07,28,17,30,01,11,06,04,,,,,1.98,1.27,1.52*0B
$GPRMC,122039.000,A,2832.7877,N,07716.3726,E,0.00,182.73,170415,,,D*6A
$GPVTG,182.73,T,,M,0.00,N,0.01,K,D*36
$GPGGA,122040.000,2832.7877,N,07716.3726,E,2,9,0.95,205.4,M,-36.1,M,0000,0000*76
$GPGSA,A,3,07,28,17,13,30,01,11,06,04,,,,1.70,0.95,1.41*05
$GPGSV,3,1,11,30,73,118,38,17,62,245,25,28,54,355,34,40,48,220,27*7B
$GPGSV,3,2,11,07,40,135,33,01,37,076,37,13,33,286,17,11,31,055,30*75
$GPGSV,3,3,11,04,19,052,15,15,08,311,,06,08,188,17*40
$GPRMC,122040.000,A,2832.7877,N,07716.3726,E,0.02,182.73,170415,,,D*66
$GPVTG,182.73,T,,M,0.02,N,0.03,K,D*36
$GPGGA,122041.000,2832.7877,N,07716.3726,E,2,8,1.27,205.4,M,-36.1,M,0000,0000*7E
$GPGSA,A,3,07,28,17,30,01,11,06,04,,,,,1.98,1.27,1.52*0B
$GPRMC,122041.000,A,2832.7877,N,07716.3726,E,0.01,182.73,170415,,,D*64
$GPVTG,182.73,T,,M,0.01,N,0.03,K,D*35
$GPGGA,122042.000,2832.7877,N,07716.3726,E,2,8,1.27,205.4,M,-36.1,M,0000,0000*7D
$GPGSA,A,3,07,28,17,30,01,11,06,04,,,,,1.98,1.27,1.52*0B
$GPRMC,122042.000,A,2832.7877,N,07716.3726,E,0.01,182.73,170415,,,D*67
$GPVTG,182.73,T,,M,0.01,N,0.01,K,D*37
$GPGGA,122043.000,2832.7877,N,07716.3726,E,2,8,1.27,205.4,M,-36.1,M,0000,0000*7C
$GPGSA,A,3,07,28,17,30,01,11,06,04,,,,,1.98,1.27,1.52*0B
$GPRMC,122043.000,A,2832.7877,N,07716.3726,E,0.02,182.73,170415,,,D*65
$GPVTG,182.73,T,,M,0.02,N,0.04,K,D*31
