$GPGGA,122149.000,2832.7836,N,07716.3723,E,2,8,1.21,206.6,M,-36.1,M,0000,0000*70
$GPGSA,A,3,07,28,17,15,30,01,11,04,,,,,1.49,1.21,0.87*0A
$GPRMC,122149.000,A,2832.7836,N,07716.3723,E,0.11,178.44,170415,,,D*6D
$GPVTG,178.44,T,,M,0.11,N,0.20,K,D*34
$GPGGA,122150.000,2832.7836,N,07716.3723,E,2,8,1.21,206.6,M,-36.1,M,0000,0000*78
$GPGSA,A,3,07,28,17,15,30,01,11,04,,,,,1.49,1.21,0.87*0A
$GPGSV,3,1,11,30,73,120,41,17,63,246,37,28,54,355,34,40,48,220,35*7C
$GPGSV,3,2,11,07,40,135,33,01,37,075,41,13,33,285,,11,31,055,38*7A
$GPGSV,3,3,11,04,19,051,24,06,09,188,17,15,08,311,17*46
$GPRMC,122150.000,A,2832.7836,N,07716.3723,E,0.24,178.44,170415,,,D*63
$GPVTG,178.44,T,,M,0.24,N,0.45,K,D*31
$GPGGA,122151.000,2832.7836,N,07716.3722,E,2,8,1.21,206.6,M,-36.1,M,0000,0000*78
$GPGSA,A,3,07,28,17,15,30,01,11,04,,,,,1.49,1.21,0.87*0A
$GPRMC,122151.000,A,2832.7836,N,07716.3722,E,0.26,178.44,170415,,,D*61
$GPVTG,178.44,T,,M,0.26,N,0.49,K,D*3F
$GPGGA,122152.000,2832.7837,N,07716.3721,E,2,8,1.21,206.6,M,-36.1,M,0000,0000*79
$GPGSA,A,3,07,28,17,15,30,01,11,04,,,,,1.49,1.21,0.87*0A
$GPRMC,122152.000,A,2832.7837,N,07716.3721,E,0.27,178.44,170415,,,D*61
$GPVTG,178.44,T,,M,0.27,N,0.50,K,D*36
$GPGGA,122153.000,2832.7837,N,07716.3721,E,2,8,1.21,206.6,M,-36.1,M,0000,0000*78
$GPGSA,A,3,07,28,17,15,30,01,11,04,,,,,1.49,1.21,0.87*0A
$GPRMC,122153.000,A,2832.7837,N,07716.3721,E,0.07,178.44,170415,,,D*62
$GPVTG,178.44,T,,M,0.07,N,0.12,K,D*32
$GPGGA,122154.000,2832.7838,N,07716.3721,E,2,10,0.90,206.6,M,-36.1,M,0000,0000*42
$GPGSA,A,3,07,28,17,15,30,01,13,11,06,04,,,1.56,0.90,1.27*00
$GPRMC,122154.000,A,2832.7838,N,07716.3721,E,0.06,178.44,170415,,,D*6B
$GPVTG,178.44,T,,M,0.06,N,0.11,K,D*30
$GPGGA,122155.000,2832.7838,N,07716.3721,E,2,10,0.82,206.6,M,-36.1,M,0000,0000*40
$GPGSA,A,3,07,28,17,15,30,01,13,11,06,04,,,1.12,0.82,0.76*06
$GPGSV,3,1,11,30,73,120,41,17,63,246,33,28,54,355,40,40,48,220,34*7A
$GPGSV,3,2,11,07,40,135,30,01,37,075,39,13,33,285,22,11,31,055,39*77
$GPGSV,3,3,11,04,19,051,21,06,09,188,20,15,08,311,17*47
$GPRMC,122155.000,A,2832.7838,N,07716.3721,E,0.07,178.44,170415,,,D*6B
$GPVTG,178.44,T,,M,0.07,N,0.13,K,D*33
$GPGGA,122156.000,2832.7838,N,07716.3721,E,2,10,0.82,206.6,M,-36.1,M,0000,0000*43
$GPGSA,A,3,07,28,17,15,30,01,13,11,06,04,,,1.12,0.82,0.76*06
$GPRMC,122156.000,A,2832.7838,N,07716.3721,E,0.05,178.44,170415,,,D*6A
$GPVTG,178.44,T,,M,0.05,N,0.10,K,D*32
$GPGGA,122157.000,2832.7838,N,07716.3721,E,2,8,1.14,206.6,M,-36.1,M,0000,0000*75
$GPGSA,A,3,07,28,17,15,30,01,13,11,,,,,1.43,1.14,0.87*00
$GPRMC,122157.000,A,2832.7838,N,07716.3721,E,0.15,178.44,170415,,,D*6A
$GPVTG,178.44,T,,M,0.15,N,0.27,K,D*37
$GPGGA,122158.000,2832.7837,N,07716.3721,E,2,9,0.89,206.6,M,-36.1,M,0000,0000*71
$GPGSA,A,3,07,28,17,15,30,01,11,06,04,,,,1.17,0.89,0.76*0A
$GPRMC,122158.000,A,2832.7837,N,07716.3721,E,0.13,178.44,170415,,,D*6C
$GPVTG,178.44,T,,M,0.13,N,0.24,K,D*32
$GPGGA,122159.000,2832.7837,N,07716.3720,E,2,9,0.89,206.6,M,-36.1,M,0000,0000*71
$GPGSA,A,3,07,28,17,15,30,01,11,06,04,,,,1.17,0.89,0.76*0A
$GPRMC,122159.000,A,2832.7837,N,07716.3720,E,0.09,178.44,170415,,,D*67
$GPVTG,178.44,T,,M,0.09,N,0.16,K,D*38
$GPGGA,122200.000,2832.7837,N,07716.3721,E,2,10,0.82,206.6,M,-36.1,M,0000,0000*4C
$GPGSA,A,3,07,28,17,15,30,01,13,11,06,04,,,1.12,0.82,0.76*06
$GPGSV,3,1,11,30,73,120,42,17,63,246,32,28,54,356,36,40,48,220,33*7D
$GPGSV,3,2,11,07,40,135,30,01,37,075,39,13,33,285,23,11,31,055,38*77
$GPGSV,3,3,11,04,19,051,22,06,09,188,23,15,08,311,17*47
$GPRMC,122200.000,A,2832.7837,N,07716.3721,E,0.12,178.44,170415,,,D*63
$GPVTG,178.44,T,,M,0.12,N,0.22,K,D*35
$GPGGA,122201.000,2832.7837,N,07716.3720,E,2,10,0.82,206.6,M,-36.1,M,0000,0000*4C
$GPGSA,A,3,07,28,17,15,30,01,13,11,06,04,,,1.12,0.82,0.76*06
$GPRMC,122201.000,A,2832.7837,N,07716.3720,E,0.05,178.44,170415,,,D*65
$GPVTG,178.44,T,,M,0.05,N,0.09,K,D*3A
$GPGGA,122202.000,2832.7837,N,07716.3720,E,2,9,0.89,206.6,M,-36.1,M,0000,0000*7C
$GPGSA,A,3,07,28,17,15,30,01,11,06,04,,,,1.17,0.89,0.76*0A
$GPRMC,122202.000,A,2832.7837,N,07716.3720,E,0.04,178.44,170415,,,D*67
$GPVTG,178.44,T,,M,0.04,N,0.08,K,D*3A
$GPGGA,122203.000,2832.7837,N,07716.3720,E,2,9,0.94,206.6,M,-36.1,M,0000,0000*71
$GPGSA,A,3,07,28,17,30,01,13,11,06,04,,,,1.24,0.94,0.82*0B
$GPRMC,122203.000,A,2832.7837,N,07716.3720,E,0.05,178.44,170415,,,D*67
$GPVTG,178.44,T,,M,0.05,N,0.08,K,D*3B
$GPGGA,122204.000,2832.7837,N,07716.3720,E,2,10,0.82,206.6,M,-36.1,M,0000,0000*49
$GPGSA,A,3,07,28,17,15,30,01,13,11,06,04,,,1.12,0.82,0.76*06
$GPRMC,122204.000,A,2832.7837,N,07716.3720,E,0.04,178.44,170415,,,D*61
$GPVTG,178.44,T,,M,0.04,N,0.07,K,D*35
$GPGGA,122205.000,2832.7838,N,07716.3720,E,2,10,0.82,206.6,M,-36.1,M,0000,0000*47
$GPGSA,A,3,07,28,17,15,30,01,13,11,06,04,,,1.12,0.82,0.76*06
$GPGSV,3,1,11,30,73,120,42,17,63,246,32,28,54,356,36,40,48,220,32*7C
$GPGSV,3,2,11,07,40,135,31,01,37,075,30,13,33,285,25,11,31,055,26*76
$GPGSV,3,3,11,04,19,051,17,06,09,188,23,15,08,311,18*4E
$GPRMC,122205.000,A,2832.7838,N,07716.3720,E,0.07,178.44,170415,,,D*6C
$GPVTG,178.44,T,,M,0.07,N,0.13,K,D*33
$GPGGA,122206.000,2832.7838,N,07716.3721,E,2,10,0.82,206.6,M,-36.1,M,0000,0000*45
$GPGSA,A,3,07,28,17,15,30,01,13,11,06,04,,,1.12,0.82,0.76*06
$GPRMC,122206.000,A,2832.7838,N,07716.3721,E,0.21,178.44,170415,,,D*6A
$GPVTG,178.44,T,,M,0.21,N,0.40,K,D*31
$GPGGA,122207.000,2832.7838,N,07716.3721,E,2,10,0.82,206.6,M,-36.1,M,0000,0000*44
$GPGSA,A,3,07,28,17,15,30,01,13,11,06,04,,,1.12,0.82,0.76*06
$GPRMC,122207.000,A,2832.7838,N,07716.3721,E,0.32,178.44,170415,,,D*69
$GPVTG,178.44,T,,M,0.32,N,0.59,K,D*3B
$GPGGA,122208.000,2832.7838,N,07716.3722,E,2,10,0.82,206.6,M,-36.1,M,0000,0000*48
$GPGSA,A,3,07,28,17,15,30,01,13,11,06,04,,,1.12,0.82,0.76*06
$GPRMC,122208.000,A,2832.7838,N,07716.3722,E,0.35,84.77,170415,,,D*50
$GPVTG,84.77,T,,M,0.35,N,0.65,K,D*01
$GPGGA,122209.000,2832.7838,N,07716.3723,E,2,10,0.82,206.6,M,-36.1,M,0000,0000*48
$GPGSA,A,3,07,28,17,15,30,01,13,11,06,04,,,1.12,0.82,0.76*06
$GPRMC,122209.000,A,2832.7838,N,07716.3723,E,0.32,85.62,170415,,,D*52
$GPVTG,85.62,T,,M,0.32,N,0.59,K,D*0C
$GPGGA,122210.000,2832.7838,N,07716.3724,E,2,10,0.82,206.7,M,-36.1,M,0000,0000*46
$GPGSA,A,3,07,28,17,15,30,01,13,11,06,04,,,1.12,0.82,0.76*06
$GPGSV,3,1,11,30,73,120,41,17,63,246,32,28,54,356,35,40,48,220,34*7A
$GPGSV,3,2,11,07,39,136,31,01,37,075,29,13,33,285,25,11,31,055,24*71
$GPGSV,3,3,11,04,19,051,16,06,09,188,20,15,08,311,18*4C
$GPRMC,122210.000,A,2832.7838,N,07716.3724,E,0.25,87.70,170415,,,D*5A
$GPVTG,87.70,T,,M,0.25,N,0.46,K,D*05
$GPGGA,122211.000,2832.7837,N,07716.3725,E,2,9,0.89,206.7,M,-36.1,M,0000,0000*7A
$GPGSA,A,3,07,28,17,15,30,01,13,11,06,,,,1.19,0.89,0.79*0D
$GPRMC,122211.000,A,2832.7837,N,07716.3725,E,0.30,89.87,170415,,,D*57
$GPVTG,89.87,T,,M,0.30,N,0.55,K,D*05