$GPGGA,122309.000,2832.7802,N,07716.3726,E,2,8,1.24,208.4,M,-36.1,M,0000,0000*7D
$GPGSA,A,3,07,28,17,30,01,13,11,04,,,,,2.49,1.24,2.16*00
$GPRMC,122309.000,A,2832.7802,N,07716.3726,E,0.09,176.11,170415,,,D*6E
$GPVTG,176.11,T,,M,0.09,N,0.17,K,D*37
$GPGGA,122310.000,2832.7801,N,07716.3726,E,2,9,0.95,208.4,M,-36.1,M,0000,0000*7C
$GPGSA,A,3,07,28,17,30,01,13,11,06,04,,,,1.71,0.95,1.41*04
$GPGSV,3,1,11,30,72,122,45,17,63,247,40,28,54,357,35,40,48,220,35*79
$GPGSV,3,2,11,07,39,136,18,01,37,074,23,13,33,285,25,11,31,054,37*72
$GPGSV,3,3,11,04,19,051,30,06,09,188,19,15,08,311,*4B
$GPRMC,122310.000,A,2832.7801,N,07716.3726,E,0.11,176.11,170415,,,D*6C
$GPVTG,176.11,T,,M,0.11,N,0.21,K,D*3B
$GPGGA,122311.000,2832.7801,N,07716.3727,E,2,9,0.95,208.4,M,-36.1,M,0000,0000*7C
$GPGSA,A,3,07,28,17,30,01,13,11,06,04,,,,1.71,0.95,1.42*07
$GPRMC,122311.000,A,2832.7801,N,07716.3727,E,0.12,176.11,170415,,,D*6F
$GPVTG,176.11,T,,M,0.12,N,0.23,K,D*3A
$GPGGA,122312.000,2832.7801,N,07716.3727,E,2,9,0.95,208.4,M,-36.1,M,0000,0000*7F
$GPGSA,A,3,07,28,17,30,01,13,11,06,04,,,,1.71,0.95,1.42*07
$GPRMC,122312.000,A,2832.7801,N,07716.3727,E,0.01,176.11,170415,,,D*6E
$GPVTG,176.11,T,,M,0.01,N,0.02,K,D*3B
$GPGGA,122313.000,2832.7801,N,07716.3727,E,2,9,0.95,208.4,M,-36.1,M,0000,0000*7E
$GPGSA,A,3,07,28,17,30,01,13,11,06,04,,,,1.71,0.95,1.42*07
$GPRMC,122313.000,A,2832.7801,N,07716.3727,E,0.06,176.11,170415,,,D*68
$GPVTG,176.11,T,,M,0.06,N,0.12,K,D*3D
$GPGGA,122314.000,2832.7801,N,07716.3727,E,2,9,0.95,208.4,M,-36.1,M,0000,0000*79
$GPGSA,A,3,07,28,17,30,01,13,11,06,04,,,,1.71,0.95,1.42*07
$GPRMC,122314.000,A,2832.7801,N,07716.3727,E,0.04,176.11,170415,,,D*6D
$GPVTG,176.11,T,,M,0.04,N,0.08,K,D*34
$GPGGA,122315.000,2832.7801,N,07716.3727,E,2,9,0.95,208.4,M,-36.1,M,0000,0000*78
$GPGSA,A,3,07,28,17,30,01,13,11,06,04,,,,1.70,0.95,1.41*05
$GPGSV,3,1,11,30,72,122,44,17,63,247,40,28,54,357,39,40,48,220,35*74
$GPGSV,3,2,11,07,39,136,21,01,37,074,23,13,33,285,29,11,31,054,36*75
$GPGSV,3,3,11,04,18,051,29,06,09,188,20,15,08,311,*48
$GPRMC,122315.000,A,2832.7801,N,07716.3727,E,0.03,176.11,170415,,,D*6B
$GPVTG,176.11,T,,M,0.03,N,0.05,K,D*3E
$GPGGA,122316.000,2832.7801,N,07716.3727,E,2,9,0.95,208.4,M,-36.1,M,0000,0000*7B
$GPGSA,A,3,07,28,17,30,01,13,11,06,04,,,,1.70,0.95,1.41*05
$GPRMC,122316.000,A,2832.7801,N,07716.3727,E,0.03,176.11,170415,,,D*68
$GPVTG,176.11,T,,M,0.03,N,0.05,K,D*3E
$GPGGA,122317.000,2832.7801,N,07716.3727,E,2,9,0.95,208.4,M,-36.1,M,0000,0000*7A
$GPGSA,A,3,07,28,17,30,01,13,11,06,04,,,,1.71,0.95,1.42*07
$GPRMC,122317.000,A,2832.7801,N,07716.3727,E,0.03,176.11,170415,,,D*69
$GPVTG,176.11,T,,M,0.03,N,0.05,K,D*3E
$GPGGA,122318.000,2832.7801,N,07716.3727,E,2,9,0.95,208.4,M,-36.1,M,0000,0000*75
$GPGSA,A,3,07,28,17,30,01,13,11,06,04,,,,1.71,0.95,1.42*07
$GPRMC,122318.000,A,2832.7801,N,07716.3727,E,0.02,176.11,170415,,,D*67
$GPVTG,176.11,T,,M,0.02,N,0.04,K,D*3E
$GPGGA,122319.000,2832.7801,N,07716.3727,E,2,9,0.95,208.4,M,-36.1,M,0000,0000*74
$GPGSA,A,3,07,28,17,30,01,13,11,06,04,,,,1.71,0.95,1.42*07
$GPRMC,122319.000,A,2832.7801,N,07716.3727,E,0.02,176.11,170415,,,D*66
$GPVTG,176.11,T,,M,0.02,N,0.04,K,D*3E
$GPGGA,122320.000,2832.7801,N,07716.3727,E,2,9,0.95,208.4,M,-36.1,M,0000,0000*7E
$GPGSA,A,3,07,28,17,30,01,13,11,06,04,,,,1.71,0.95,1.42*07
$GPGSV,3,1,11,30,72,122,43,17,63,247,40,28,54,357,37,40,48,220,36*7E
$GPGSV,3,2,11,07,39,136,23,01,37,074,23,13,33,285,31,11,31,054,37*7F
$GPGSV,3,3,11,04,18,051,28,06,09,188,19,15,08,311,*43
$GPRMC,122320.000,A,2832.7801,N,07716.3727,E,0.01,176.11,170415,,,D*6F
$GPVTG,176.11,T,,M,0.01,N,0.03,K,D*3A
$GPGGA,122321.000,2832.7801,N,07716.3727,E,2,9,0.95,208.4,M,-36.1,M,0000,0000*7F
$GPGSA,A,3,07,28,17,30,01,13,11,06,04,,,,1.70,0.95,1.41*05
$GPRMC,122321.000,A,2832.7801,N,07716.3727,E,0.02,176.11,170415,,,D*6D
$GPVTG,176.11,T,,M,0.02,N,0.04,K,D*3E
$GPGGA,122322.000,2832.7801,N,07716.3727,E,2,9,0.95,208.4,M,-36.1,M,0000,0000*7C
$GPGSA,A,3,07,28,17,30,01,13,11,06,04,,,,1.71,0.95,1.42*07
$GPRMC,122322.000,A,2832.7801,N,07716.3727,E,0.02,176.11,170415,,,D*6E
$GPVTG,176.11,T,,M,0.02,N,0.03,K,D*39
$GPGGA,122323.000,2832.7801,N,07716.3727,E,2,9,0.95,208.4,M,-36.1,M,0000,0000*7D
$GPGSA,A,3,07,28,17,30,01,13,11,06,04,,,,1.71,0.95,1.42*07
$GPRMC,122323.000,A,2832.7801,N,07716.3727,E,0.02,176.11,170415,,,D*6F
$GPVTG,176.11,T,,M,0.02,N,0.03,K,D*39
$GPGGA,122324.000,2832.7801,N,07716.3727,E,2,8,1.00,208.4,M,-36.1,M,0000,0000*76
$GPGSA,A,3,07,28,17,30,01,13,11,06,,,,,1.31,1.00,0.85*00
$GPRMC,122324.000,A,2832.7801,N,07716.3727,E,0.02,176.11,170415,,,D*68
$GPVTG,176.11,T,,M,0.02,N,0.04,K,D*3E
$GPGGA,122325.000,2832.7801,N,07716.3727,E,2,9,0.95,208.4,M,-36.1,M,0000,0000*7B
$GPGSA,A,3,07,28,17,30,01,13,11,06,04,,,,1.71,0.95,1.42*07
$GPGSV,3,1,11,30,72,122,42,17,63,248,40,28,54,357,39,40,48,220,35*7D
$GPGSV,3,2,11,07,39,136,21,01,37,074,24,13,33,284,30,11,31,054,35*78
$GPGSV,3,3,11,04,18,051,20,06,09,188,20,15,08,310,*40
$GPRMC,122325.000,A,2832.7801,N,07716.3727,E,0.02,176.11,170415,,,D*69
$GPVTG,176.11,T,,M,0.02,N,0.03,K,D*39
$GPGGA,122326.000,2832.7801,N,07716.3727,E,2,9,0.95,208.4,M,-36.1,M,0000,0000*78
$GPGSA,A,3,07,28,17,30,01,13,11,06,04,,,,1.71,0.95,1.42*07
$GPRMC,122326.000,A,2832.7801,N,07716.3727,E,0.03,176.11,170415,,,D*6B
$GPVTG,176.11,T,,M,0.03,N,0.05,K,D*3E
$GPGGA,122327.000,2832.7801,N,07716.3727,E,2,10,0.82,208.4,M,-36.1,M,0000,0000*47
$GPGSA,A,3,07,28,17,15,30,01,13,11,06,04,,,1.12,0.82,0.76*06
$GPRMC,122327.000,A,2832.7801,N,07716.3727,E,0.01,176.11,170415,,,D*68
$GPVTG,176.11,T,,M,0.01,N,0.03,K,D*3A
$GPGGA,122328.000,2832.7801,N,07716.3727,E,2,9,0.94,208.4,M,-36.1,M,0000,0000*77
$GPGSA,A,3,07,28,17,30,01,13,11,06,04,,,,1.24,0.94,0.82*0B
$GPRMC,122328.000,A,2832.7801,N,07716.3727,E,0.01,176.11,170415,,,D*67
$GPVTG,176.11,T,,M,0.01,N,0.01,K,D*38
$GPGGA,122329.000,2832.7801,N,07716.3727,E,2,8,1.00,208.4,M,-36.1,M,0000,0000*7B
$GPGSA,A,3,07,28,17,30,01,13,11,06,,,,,1.31,1.00,0.85*00
$GPRMC,122329.000,A,2832.7801,N,07716.3727,E,0.01,176.11,170415,,,D*66
$GPVTG,176.11,T,,M,0.01,N,0.03,K,D*3A
$GPGGA,122330.000,2832.7801,N,07716.3727,E,2,9,0.94,208.4,M,-36.1,M,0000,0000*7E
$GPGSA,A,3,07,28,17,30,01,13,11,06,04,,,,1.24,0.94,0.82*0B
$GPGSV,3,1,11,30,72,122,41,17,63,248,38,28,54,357,37,40,48,220,35*7F
$GPGSV,3,2,11,07,39,136,19,01,37,074,22,13,33,284,29,11,31,054,34*7C
$GPGSV,3,3,11,04,18,051,20,06,09,188,18,15,08,310,16*4C
$GPRMC,122330.000,A,2832.7801,N,07716.3727,E,0.03,176.11,170415,,,D*6C
$GPVTG,176.11,T,,M,0.03,N,0.05,K,D*3E
$GPGGA,122331.000,2832.7801,N,07716.3727,E,2,9,0.94,208.4,M,-36.1,M,0000,0000*7F
$GPGSA,A,3,07,28,17,30,01,13,11,06,04,,,,1.24,0.94,0.82*0B
$GPRMC,122331.000,A,2832.7801,N,07716.3727,E,0.00,176.11,170415,,,D*6E
$GPVTG,176.11,T,,M,0.00,N,0.00,K,D*38
