$GPGGA,122424.000,2832.7761,N,07716.3724,E,2,9,0.94,209.2,M,-36.1,M,0000,0000*71
$GPGSA,A,3,07,28,17,30,01,13,11,06,04,,,,1.24,0.94,0.82*0B
$GPRMC,122424.000,A,2832.7761,N,07716.3724,E,0.05,200.21,170415,,,D*63
$GPVTG,200.21,T,,M,0.05,N,0.09,K,D*35
$GPGGA,122425.000,2832.7761,N,07716.3724,E,2,10,0.82,209.2,M,-36.1,M,0000,0000*4F
$GPGSA,A,3,07,28,17,15,30,01,13,11,06,04,,,1.44,0.82,1.19*0D
$GPGSV,3,1,11,30,72,123,41,17,64,248,37,28,54,357,35,40,48,220,31*70
$GPGSV,3,2,11,07,38,136,35,01,37,073,20,13,33,284,37,11,30,054,23*7E
$GPGSV,3,3,11,04,18,050,19,06,10,188,18,15,08,310,15*4C
$GPRMC,122425.000,A,2832.7761,N,07716.3724,E,0.01,200.21,170415,,,D*66
$GPVTG,200.21,T,,M,0.01,N,0.02,K,D*3A
$GPGGA,122426.000,2832.7761,N,07716.3724,E,2,10,0.82,209.2,M,-36.1,M,0000,0000*4C
$GPGSA,A,3,07,28,17,15,30,01,13,11,06,04,,,1.44,0.82,1.19*0D
$GPRMC,122426.000,A,2832.7761,N,07716.3724,E,0.04,200.21,170415,,,D*60
$GPVTG,200.21,T,,M,0.04,N,0.08,K,D*35
$GPGGA,122427.000,2832.7761,N,07716.3724,E,2,10,0.82,209.2,M,-36.1,M,0000,0000*4D
$GPGSA,A,3,07,28,17,15,30,01,13,11,06,04,,,1.44,0.82,1.19*0D
$GPRMC,122427.000,A,2832.7761,N,07716.3724,E,0.03,200.21,170415,,,D*66
$GPVTG,200.21,T,,M,0.03,N,0.06,K,D*3C
$GPGGA,122428.000,2832.7761,N,07716.3725,E,2,10,0.82,209.3,M,-36.1,M,0000,0000*42
$GPGSA,A,3,07,28,17,15,30,01,13,11,06,04,,,1.44,0.82,1.19*0D
$GPRMC,122428.000,A,2832.7761,N,07716.3725,E,0.06,200.21,170415,,,D*6D
$GPVTG,200.21,T,,M,0.06,N,0.10,K,D*3E
$GPGGA,122429.000,2832.7761,N,07716.3725,E,2,10,0.82,209.3,M,-36.1,M,0000,0000*43
$GPGSA,A,3,07,28,17,15,30,01,13,11,06,04,,,1.44,0.82,1.19*0D
$GPRMC,122429.000,A,2832.7761,N,07716.3725,E,0.02,200.21,170415,,,D*68
$GPVTG,200.21,T,,M,0.02,N,0.04,K,D*3F
$GPGGA,122430.000,2832.7761,N,07716.3725,E,2,10,0.82,209.3,M,-36.1,M,0000,0000*4B
$GPGSA,A,3,07,28,17,15,30,01,13,11,06,04,,,1.12,0.82,0.76*06
$GPGSV,3,1,11,30,72,123,40,17,64,249,36,28,54,357,33,40,48,220,32*74
$GPGSV,3,2,11,07,38,136,32,01,37,073,23,13,33,284,35,11,30,054,21*7A
$GPGSV,3,3,11,04,18,050,19,06,10,188,24,15,08,310,16*40
$GPRMC,122430.000,A,2832.7761,N,07716.3725,E,0.01,200.21,170415,,,D*63
$GPVTG,200.21,T,,M,0.01,N,0.01,K,D*39
$GPGGA,122431.000,2832.7761,N,07716.3725,E,2,10,0.82,209.3,M,-36.1,M,0000,0000*4A
$GPGSA,A,3,07,28,17,15,30,01,13,11,06,04,,,1.44,0.82,1.19*0D
$GPRMC,122431.000,A,2832.7761,N,07716.3725,E,0.02,200.21,170415,,,D*61
$GPVTG,200.21,T,,M,0.02,N,0.04,K,D*3F
$GPGGA,122432.000,2832.7761,N,07716.3725,E,2,9,0.95,209.3,M,-36.1,M,0000,0000*77
$GPGSA,A,3,07,28,17,30,01,13,11,06,04,,,,1.71,0.95,1.42*07
$GPRMC,122432.000,A,2832.7761,N,07716.3725,E,0.02,200.21,170415,,,D*62
$GPVTG,200.21,T,,M,0.02,N,0.03,K,D*38
$GPGGA,122433.000,2832.7761,N,07716.3725,E,2,9,0.95,209.3,M,-36.1,M,0000,0000*76
$GPGSA,A,3,07,28,17,30,01,13,11,06,04,,,,1.71,0.95,1.42*07
$GPRMC,122433.000,A,2832.7761,N,07716.3725,E,0.01,200.21,170415,,,D*60
$GPVTG,200.21,T,,M,0.01,N,0.02,K,D*3A
$GPGGA,122434.000,2832.7761,N,07716.3725,E,2,8,1.03,209.3,M,-36.1,M,0000,0000*7E
$GPGSA,A,3,07,28,17,30,01,13,11,06,,,,,1.94,1.03,1.64*02
$GPRMC,122434.000,A,2832.7761,N,07716.3725,E,0.04,200.21,170415,,,D*62
$GPVTG,200.21,T,,M,0.04,N,0.08,K,D*35
$GPGGA,122435.000,2832.7761,N,07716.3725,E,2,9,0.95,209.3,M,-36.1,M,0000,0000*70
$GPGSA,A,3,07,28,17,30,01,13,11,06,04,,,,1.71,0.95,1.42*07
$GPGSV,3,1,11,30,72,123,39,17,64,249,36,28,54,357,37,40,48,220,34*78
$GPGSV,3,2,11,07,38,136,33,01,37,073,21,13,33,284,33,11,30,054,23*7D
$GPGSV,3,3,11,04,18,050,21,06,10,188,22,15,08,310,16*4D
$GPRMC,122435.000,A,2832.7761,N,07716.3725,E,0.03,200.21,170415,,,D*64
$GPVTG,200.21,T,,M,0.03,N,0.05,K,D*3F
$GPGGA,122436.000,2832.7761,N,07716.3725,E,2,10,0.82,209.3,M,-36.1,M,0000,0000*4D
$GPGSA,A,3,07,28,17,15,30,01,13,11,06,04,,,1.44,0.82,1.19*0D
$GPRMC,122436.000,A,2832.7761,N,07716.3725,E,0.01,200.21,170415,,,D*65
$GPVTG,200.21,T,,M,0.01,N,0.03,K,D*3B
$GPGGA,122437.000,2832.7761,N,07716.3725,E,2,9,0.95,209.3,M,-36.1,M,0000,0000*72
$GPGSA,A,3,07,28,17,30,01,13,11,06,04,,,,1.71,0.95,1.42*07
$GPRMC,122437.000,A,2832.7761,N,07716.3725,E,0.04,200.21,170415,,,D*61
$GPVTG,200.21,T,,M,0.04,N,0.08,K,D*35
$GPGGA,122438.000,2832.7761,N,07716.3725,E,2,9,0.95,209.3,M,-36.1,M,0000,0000*7D
$GPGSA,A,3,07,28,17,30,01,13,11,06,04,,,,1.71,0.95,1.42*07
$GPRMC,122438.000,A,2832.7761,N,07716.3725,E,0.03,200.21,170415,,,D*69
$GPVTG,200.21,T,,M,0.03,N,0.06,K,D*3C
$GPGGA,122439.000,2832.7761,N,07716.3725,E,2,9,0.87,209.3,M,-36.1,M,0000,0000*7F
$GPGSA,A,3,07,28,17,15,30,01,13,06,04,,,,1.47,0.87,1.19*0B
$GPRMC,122439.000,A,2832.7761,N,07716.3725,E,0.02,200.21,170415,,,D*69
$GPVTG,200.21,T,,M,0.02,N,0.04,K,D*3F
$GPGGA,122440.000,2832.7761,N,07716.3725,E,2,9,0.95,209.3,M,-36.1,M,0000,0000*72
$GPGSA,A,3,07,28,17,30,01,13,11,06,04,,,,1.71,0.95,1.42*07
$GPGSV,3,1,11,30,72,123,38,17,64,249,36,28,54,358,36,40,48,220,32*71
$GPGSV,3,2,11,07,38,136,32,01,37,073,20,13,33,284,35,11,30,054,18*73
$GPGSV,3,3,11,04,18,050,23,06,10,188,20,15,08,310,16*4D
$GPRMC,122440.000,A,2832.7761,N,07716.3725,E,0.03,200.21,170415,,,D*66
$GPVTG,200.21,T,,M,0.03,N,0.05,K,D*3F
$GPGGA,122441.000,2832.7761,N,07716.3725,E,2,10,0.82,209.3,M,-36.1,M,0000,0000*4D
$GPGSA,A,3,07,28,17,15,30,01,13,11,06,04,,,1.44,0.82,1.19*0D
$GPRMC,122441.000,A,2832.7761,N,07716.3725,E,0.01,200.21,170415,,,D*65
$GPVTG,200.21,T,,M,0.01,N,0.02,K,D*3A
$GPGGA,122442.000,2832.7761,N,07716.3725,E,2,10,0.82,209.3,M,-36.1,M,0000,0000*4E
$GPGSA,A,3,07,28,17,15,30,01,13,11,06,04,,,1.44,0.82,1.19*0D
$GPRMC,122442.000,A,2832.7761,N,07716.3725,E,0.01,200.21,170415,,,D*66
$GPVTG,200.21,T,,M,0.01,N,0.02,K,D*3A
$GPGGA,122443.000,2832.7761,N,07716.3725,E,2,10,0.82,209.3,M,-36.1,M,0000,0000*4F
$GPGSA,A,3,07,28,17,15,30,01,13,11,06,04,,,1.44,0.82,1.19*0D
$GPRMC,122443.000,A,2832.7761,N,07716.3725,E,0.02,200.21,170415,,,D*64
$GPVTG,200.21,T,,M,0.02,N,0.03,K,D*38
$GPGGA,122444.000,2832.7761,N,07716.3725,E,2,10,0.82,209.3,M,-36.1,M,0000,0000*48
$GPGSA,A,3,07,28,17,15,30,01,13,11,06,04,,,1.44,0.82,1.19*0D
$GPRMC,122444.000,A,2832.7761,N,07716.3725,E,0.02,200.21,170415,,,D*63
$GPVTG,200.21,T,,M,0.02,N,0.03,K,D*38
$GPGGA,122445.000,2832.7761,N,07716.3725,E,2,10,0.82,209.3,M,-36.1,M,0000,0000*49
$GPGSA,A,3,07,28,17,15,30,01,13,11,06,04,,,1.44,0.82,1.19*0D
$GPGSV,3,1,11,30,72,123,38,17,64,249,36,28,54,358,34,40,48,220,32*73
$GPGSV,3,2,11,07,38,136,33,01,37,073,19,13,33,284,36,11,30,054,18*7B
$GPGSV,3,3,11,04,18,050,22,06,10,188,22,15,08,310,16*4E
$GPRMC,122445.000,A,2832.7761,N,07716.3725,E,0.02,200.21,170415,,,D*62
$GPVTG,200.21,T,,M,0.02,N,0.03,K,D*38
$GPGGA,122446.000,2832.7761,N,07716.3725,E,2,9,0.95,209.3,M,-36.1,M,0000,0000*74
$GPGSA,A,3,07,28,17,30,01,13,11,06,04,,,,1.71,0.95,1.42*07
$GPRMC,122446.000,A,2832.7761,N,07716.3725,E,0.02,200.21,170415,,,D*61
$GPVTG,200.21,T,,M,0.02,N,0.04,K,D*3F
$GPGGA,122447.000,2832.7761,N,07716.3725,E,2,9,0.94,209.3,M,-36.1,M,0000,0000*74
$GPGSA,A,3,07,28,17,30,01,13,11,06,04,,,,1.24,0.94,0.82*0B
$GPRMC,122447.000,A,2832.7761,N,07716.3725,E,0.01,200.21,170415,,,D*63
$GPVTG,200.21,T,,M,0.01,N,0.02,K,D*3A
$GPGGA,122448.000,2832.7761,N,07716.3725,E,2,9,0.95,209.3,M,-36.1,M,0000,0000*7A
$GPGSA,A,3,07,28,17,30,01,13,11,06,04,,,,1.71,0.95,1.42*07
$GPRMC,122448.000,A,2832.7761,N,07716.3725,E,0.03,200.21,170415,,,D*6E
$GPVTG,200.21,T,,M,0.03,N,0.05,K,D*3F
