$GPGGA,122550.000,2832.7708,N,07716.3738,E,2,9,0.86,207.2,M,-36.1,M,0000,0000*7C
$GPGSA,A,3,07,28,17,15,30,01,13,06,04,,,,1.15,0.86,0.77*04
$GPGSV,3,1,11,30,71,125,43,17,64,250,37,28,54,358,30,40,48,220,31*74
$GPGSV,3,2,11,07,38,137,40,01,37,073,20,13,33,283,37,11,30,053,15*78
$GPGSV,3,3,11,04,18,050,18,06,10,188,18,15,08,310,18*40
$GPRMC,122550.000,A,2832.7708,N,07716.3738,E,0.22,179.37,170415,,,D*6C
$GPVTG,179.37,T,,M,0.22,N,0.41,K,D*36
$GPGGA,122551.000,2832.7708,N,07716.3738,E,2,9,0.86,207.3,M,-36.1,M,0000,0000*7C
$GPGSA,A,3,07,28,17,15,30,01,13,06,04,,,,1.15,0.86,0.77*04
$GPRMC,122551.000,A,2832.7708,N,07716.3738,E,0.14,179.37,170415,,,D*68
$GPVTG,179.37,T,,M,0.14,N,0.26,K,D*32
$GPGGA,122552.000,2832.7708,N,07716.3738,E,2,9,0.86,207.3,M,-36.1,M,0000,0000*7F
$GPGSA,A,3,07,28,17,15,30,01,13,06,04,,,,1.15,0.86,0.77*04
$GPRMC,122552.000,A,2832.7708,N,07716.3738,E,0.08,179.37,170415,,,D*66
$GPVTG,179.37,T,,M,0.08,N,0.15,K,D*3F
$GPGGA,122553.000,2832.7707,N,07716.3738,E,2,8,1.00,207.3,M,-36.1,M,0000,0000*7F
$GPGSA,A,3,07,28,17,15,30,01,13,06,,,,,1.29,1.00,0.81*09
$GPRMC,122553.000,A,2832.7707,N,07716.3738,E,0.14,179.37,170415,,,D*65
$GPVTG,179.37,T,,M,0.14,N,0.26,K,D*32
$GPGGA,122554.000,2832.7707,N,07716.3737,E,2,8,1.00,207.3,M,-36.1,M,0000,0000*77
$GPGSA,A,3,07,28,17,15,30,01,13,06,,,,,1.29,1.00,0.81*09
$GPRMC,122554.000,A,2832.7707,N,07716.3737,E,0.10,179.37,170415,,,D*69
$GPVTG,179.37,T,,M,0.10,N,0.19,K,D*3A
$GPGGA,122555.000,2832.7707,N,07716.3738,E,2,8,1.00,207.3,M,-36.1,M,0000,0000*79
$GPGSA,A,3,07,28,17,15,30,01,13,06,,,,,1.29,1.00,0.81*09
$GPGSV,3,1,11,30,71,125,41,17,64,250,38,28,54,358,32,40,48,220,38*72
$GPGSV,3,2,11,07,38,137,38,01,37,073,23,13,33,283,34,11,30,053,15*77
$GPGSV,3,3,11,04,18,050,18,06,10,188,21,15,08,310,19*4B
$GPRMC,122555.000,A,2832.7707,N,07716.3738,E,0.06,179.37,170415,,,D*60
$GPVTG,179.37,T,,M,0.06,N,0.11,K,D*35
$GPGGA,122556.000,2832.7707,N,07716.3738,E,2,8,1.00,207.4,M,-36.1,M,0000,0000*7D
$GPGSA,A,3,07,28,17,15,30,01,13,06,,,,,1.29,1.00,0.81*09
$GPRMC,122556.000,A,2832.7707,N,07716.3738,E,0.09,179.37,170415,,,D*6C
$GPVTG,179.37,T,,M,0.09,N,0.17,K,D*3C
$GPGGA,122557.000,2832.7706,N,07716.3738,E,2,8,1.00,207.4,M,-36.1,M,0000,0000*7D
$GPGSA,A,3,07,28,17,15,30,01,13,06,,,,,1.28,1.00,0.81*08
$GPRMC,122557.000,A,2832.7706,N,07716.3738,E,0.09,179.37,170415,,,D*6C
$GPVTG,179.37,T,,M,0.09,N,0.16,K,D*3D
$GPGGA,122558.000,2832.7706,N,07716.3738,E,2,8,0.99,207.4,M,-36.1,M,0000,0000*73
$GPGSA,A,3,07,28,17,30,01,13,11,06,,,,,1.31,0.99,0.86*02
$GPRMC,122558.000,A,2832.7706,N,07716.3738,E,0.08,179.37,170415,,,D*62
$GPVTG,179.37,T,,M,0.08,N,0.15,K,D*3F
$GPGGA,122559.000,2832.7706,N,07716.3738,E,2,9,0.86,207.4,M,-36.1,M,0000,0000*7D
$GPGSA,A,3,07,28,17,15,30,01,13,06,04,,,,1.15,0.86,0.77*04
$GPRMC,122559.000,A,2832.7706,N,07716.3738,E,0.03,179.37,170415,,,D*68
$GPVTG,179.37,T,,M,0.03,N,0.05,K,D*35
$GPGGA,122600.000,2832.7706,N,07716.3738,E,2,9,0.86,207.4,M,-36.1,M,0000,0000*72
$GPGSA,A,3,07,28,17,15,30,01,13,06,04,,,,1.15,0.86,0.77*04
$GPGSV,3,1,11,30,71,125,41,17,64,250,37,28,54,358,37,40,48,220,35*75
$GPGSV,3,2,11,07,38,137,38,01,37,073,25,13,33,283,36,11,30,053,15*73
$GPGSV,3,3,11,04,18,050,20,06,10,188,22,15,08,310,26*4F
$GPRMC,122600.000,A,2832.7706,N,07716.3738,E,0.05,179.37,170415,,,D*61
$GPVTG,179.37,T,,M,0.05,N,0.10,K,D*37
$GPGGA,122601.000,2832.7706,N,07716.3738,E,2,9,0.86,207.4,M,-36.1,M,0000,0000*73
$GPGSA,A,3,07,28,17,15,30,01,13,06,04,,,,1.15,0.86,0.77*04
$GPRMC,122601.000,A,2832.7706,N,07716.3738,E,0.04,179.37,170415,,,D*61
$GPVTG,179.37,T,,M,0.04,N,0.08,K,D*3F
$GPGGA,122602.000,2832.7706,N,07716.3738,E,2,9,0.86,207.5,M,-36.1,M,0000,0000*71
$GPGSA,A,3,07,28,17,15,30,01,13,06,04,,,,1.15,0.86,0.77*04
$GPRMC,122602.000,A,2832.7706,N,07716.3738,E,0.08,179.37,170415,,,D*6E
$GPVTG,179.37,T,,M,0.08,N,0.15,K,D*3F
$GPGGA,122603.000,2832.7706,N,07716.3738,E,2,9,0.86,207.5,M,-36.1,M,0000,0000*70
$GPGSA,A,3,07,28,17,15,30,01,13,06,04,,,,1.15,0.86,0.77*04
$GPRMC,122603.000,A,2832.7706,N,07716.3738,E,0.05,179.37,170415,,,D*62
$GPVTG,179.37,T,,M,0.05,N,0.10,K,D*37
$GPGGA,122604.000,2832.7706,N,07716.3738,E,2,9,0.86,207.5,M,-36.1,M,0000,0000*77
$GPGSA,A,3,07,28,17,15,30,01,13,06,04,,,,1.48,0.86,1.20*0F
$GPRMC,122604.000,A,2832.7706,N,07716.3738,E,0.05,179.37,170415,,,D*65
$GPVTG,179.37,T,,M,0.05,N,0.09,K,D*3F
$GPGGA,122605.000,2832.7707,N,07716.3738,E,2,9,0.86,207.5,M,-36.1,M,0000,0000*77
$GPGSA,A,3,07,28,17,15,30,01,13,06,04,,,,1.48,0.86,1.20*0F
$GPGSV,3,1,11,30,71,125,42,17,64,250,38,28,54,358,37,40,48,220,34*78
$GPGSV,3,2,11,07,38,137,39,01,37,073,24,13,33,283,34,11,30,053,14*70
$GPGSV,3,3,11,04,18,050,25,06,10,188,17,15,09,310,21*4A
$GPRMC,122605.000,A,2832.7707,N,07716.3738,E,0.01,179.37,170415,,,D*61
$GPVTG,179.37,T,,M,0.01,N,0.03,K,D*31
$GPGGA,122606.000,2832.7707,N,07716.3738,E,2,9,0.86,207.5,M,-36.1,M,0000,0000*74
$GPGSA,A,3,07,28,17,15,30,01,13,06,04,,,,1.15,0.86,0.77*04
$GPRMC,122606.000,A,2832.7707,N,07716.3738,E,0.07,179.37,17---------------------------------------0415,,,D*64
$GPVTG,179.37,T,,M,0.07,N,0.13,K,D*36