$GPGGA,122736.000,2832.7631,N,07716.3730,E,2,10,0.82,207.3,M,-36.1,M,0000,0000*40
$GPGSA,A,3,07,28,17,15,30,01,13,11,06,04,,,1.45,0.82,1.20*06
$GPRMC,122736.000,A,2832.7631,N,07716.3730,E,0.07,193.66,170415,,,D*6A
$GPVTG,193.66,T,,M,0.07,N,0.13,K,D*36
$GPGGA,122737.000,2832.7631,N,07716.3730,E,2,9,0.89,207.4,M,-36.1,M,0000,0000*75
$GPGSA,A,3,07,28,17,15,30,01,13,11,06,,,,1.58,0.89,1.30*04
$GPRMC,122737.000,A,2832.7631,N,07716.3730,E,0.08,193.66,170415,,,D*64
$GPVTG,193.66,T,,M,0.08,N,0.14,K,D*3E
$GPGGA,122738.000,2832.7631,N,07716.3731,E,2,9,0.95,207.4,M,-36.1,M,0000,0000*76
$GPGSA,A,3,07,28,17,30,01,13,11,06,04,,,,1.72,0.95,1.43*05
$GPRMC,122738.000,A,2832.7631,N,07716.3731,E,0.09,193.66,170415,,,D*6B
$GPVTG,193.66,T,,M,0.09,N,0.18,K,D*33
$GPGGA,122739.000,2832.7631,N,07716.3731,E,2,9,0.89,207.4,M,-36.1,M,0000,0000*7A
$GPGSA,A,3,07,28,17,15,30,01,13,11,06,,,,1.57,0.89,1.30*0B
$GPRMC,122739.000,A,2832.7631,N,07716.3731,E,0.05,193.66,170415,,,D*66
$GPVTG,193.66,T,,M,0.05,N,0.08,K,D*3E
$GPGGA,122740.000,2832.7631,N,07716.3731,E,2,10,0.82,207.4,M,-36.1,M,0000,0000*47
$GPGSA,A,3,07,28,17,15,30,01,13,11,06,04,,,1.45,0.82,1.20*06
$GPGSV,3,1,11,30,70,126,36,17,64,251,37,28,54,000,38,40,48,220,27*74
$GPGSV,3,2,11,07,37,137,34,01,36,072,21,13,33,282,29,11,29,053,22*77
$GPGSV,3,3,11,04,17,049,17,06,11,188,17,15,09,309,17*40
$GPRMC,122740.000,A,2832.7631,N,07716.3731,E,0.04,193.66,170415,,,D*69
$GPVTG,193.66,T,,M,0.04,N,0.07,K,D*30
$GPGGA,122741.000,2832.7631,N,07716.3731,E,2,9,0.89,207.4,M,-36.1,M,0000,0000*75
$GPGSA,A,3,07,28,17,15,30,01,13,11,06,,,,1.58,0.89,1.30*04
$GPRMC,122741.000,A,2832.7631,N,07716.3731,E,0.03,193.66,170415,,,D*6F
$GPVTG,193.66,T,,M,0.03,N,0.05,K,D*35
$GPGGA,122742.000,2832.7631,N,07716.3731,E,2,9,0.89,207.4,M,-36.1,M,0000,0000*76
$GPGSA,A,3,07,28,17,15,30,01,13,11,06,,,,1.57,0.89,1.30*0B
$GPRMC,122742.000,A,2832.7631,N,07716.3731,E,0.04,193.66,170415,,,D*6B
$GPVTG,193.66,T,,M,0.04,N,0.07,K,D*30
$GPGGA,122743.000,2832.7631,N,07716.3731,E,2,8,1.03,207.4,M,-36.1,M,0000,0000*75
$GPGSA,A,3,07,28,17,15,30,01,13,06,,,,,1.72,1.03,1.37*08
$GPRMC,122743.000,A,2832.7631,N,07716.3731,E,0.03,193.66,170415,,,D*6D
$GPVTG,193.66,T,,M,0.03,N,0.05,K,D*35
$GPGGA,122744.000,2832.7631,N,07716.3731,E,2,8,1.02,207.4,M,-36.1,M,0000,0000*73
$GPGSA,A,3,07,28,17,30,01,13,11,06,,,,,1.95,1.02,1.66*00
$GPRMC,122744.000,A,2832.7631,N,07716.3731,E,0.07,193.66,170415,,,D*6E
$GPVTG,193.66,T,,M,0.07,N,0.14,K,D*31
$GPGGA,122745.000,2832.7631,N,07716.3731,E,2,8,1.02,207.4,M,-36.1,M,0000,0000*72
$GPGSA,A,3,07,28,17,30,01,13,11,06,,,,,1.95,1.02,1.66*00
$GPGSV,3,1,11,30,70,126,35,17,65,252,38,28,54,000,37,40,48,220,28*7A
$GPGSV,3,2,11,07,37,137,35,01,36,072,24,13,33,282,33,11,29,053,18*71
$GPGSV,3,3,11,04,17,049,16,06,11,188,19,15,09,309,15*4D
$GPRMC,122745.000,A,2832.7631,N,07716.3731,E,0.03,193.66,170415,,,D*6B
$GPVTG,193.66,T,,M,0.03,N,0.06,K,D*36
$GPGGA,122746.000,2832.7631,N,07716.3731,E,2,9,0.89,207.4,M,-36.1,M,0000,0000*72
$GPGSA,A,3,07,28,17,15,30,01,13,11,06,,,,1.57,0.89,1.30*0B
$GPRMC,122746.000,A,2832.7631,N,07716.3731,E,0.00,193.66,170415,,,D*6B
$GPVTG,193.66,T,,M,0.00,N,0.01,K,D*32
$GPGGA,122747.000,2832.7631,N,07716.3731,E,2,9,0.89,207.4,M,-36.1,M,0000,0000*73
$GPGSA,A,3,07,28,17,15,30,01,13,11,06,,,,1.58,0.89,1.30*04
$GPRMC,122747.000,A,2832.7631,N,07716.3731,E,0.01,193.66,170415,,,D*6B
$GPVTG,193.66,T,,M,0.01,N,0.02,K,D*30
$GPGGA,122748.000,2832.7631,N,07716.3731,E,2,9,0.89,207.4,M,-36.1,M,0000,0000*7C
$GPGSA,A,3,07,28,17,15,30,01,13,11,06,,,,1.58,0.89,1.30*04
$GPRMC,122748.000,A,2832.7631,N,07716.3731,E,0.03,193.66,170415,,,D*66
$GPVTG,193.66,T,,M,0.03,N,0.06,K,D*36
$GPGGA,122749.000,2832.7631,N,07716.3731,E,2,9,0.89,207.4,M,-36.1,M,0000,0000*7D
$GPGSA,A,3,07,28,17,15,30,01,13,11,06,,,,1.57,0.89,1.30*0B
$GPRMC,122749.000,A,2832.7631,N,07716.3731,E,0.03,193.66,170415,,,D*67
$GPVTG,193.66,T,,M,0.03,N,0.05,K,D*35
$GPGGA,122750.000,2832.7631,N,07716.3731,E,2,9,0.89,207.4,M,-36.1,M,0000,0000*75
$GPGSA,A,3,07,28,17,15,30,01,13,11,06,,,,1.58,0.89,1.30*04
$GPGSV,3,1,11,30,70,126,39,17,65,252,40,28,54,000,33,40,48,220,31*75
$GPGSV,3,2,11,07,37,137,34,01,36,072,27,13,33,282,30,11,29,053,20*7B
$GPGSV,3,3,11,04,17,049,18,06,11,188,25,15,09,309,23*49
$GPRMC,122750.000,A,2832.7631,N,07716.3731,E,0.00,193.66,170415,,,D*6C
$GPVTG,193.66,T,,M,0.00,N,0.01,K,D*32
$GPGGA,122751.000,2832.7631,N,07716.3731,E,2,9,0.86,207.4,M,-36.1,M,0000,0000*7B
$GPGSA,A,3,07,28,17,15,30,01,13,06,04,,,,1.48,0.86,1.21*0E
$GPRMC,122751.000,A,2832.7631,N,07716.3731,E,0.00,193.66,170415,,,D*6D
$GPVTG,193.66,T,,M,0.00,N,0.01,K,D*32
$GPGGA,122752.000,2832.7631,N,07716.3731,E,2,10,0.82,207.4,M,-36.1,M,0000,0000*44
$GPGSA,A,3,07,28,17,15,30,01,13,11,06,04,,,1.45,0.82,1.20*06
$GPRMC,122752.000,A,2832.7631,N,07716.3731,E,0.00,193.66,170415,,,D*6E
$GPVTG,193.66,T,,M,0.00,N,0.00,K,D*33
$GPGGA,122753.000,2832.7631,N,07716.3731,E,2,9,0.86,207.4,M,-36.1,M,0000,0000*79
$GPGSA,A,3,07,28,17,15,30,01,13,06,04,,,,1.48,0.86,1.21*0E
$GPRMC,122753.000,A,2832.7631,N,07716.3731,E,0.00,193.66,170415,,,D*6F
$GPVTG,193.66,T,,M,0.00,N,0.00,K,D*33
$GPGGA,122754.000,2832.7631,N,07716.3731,E,2,9,0.89,207.4,M,-36.1,M,0000,0000*71
$GPGSA,A,3,07,28,17,15,30,01,13,11,06,,,,1.58,0.89,1.30*04
$GPRMC,122754.000,A,2832.7631,N,07716.3731,E,0.01,193.66,170415,,,D*69
$GPVTG,193.66,T,,M,0.01,N,0.03,K,D*31
$GPGGA,122755.000,2832.7631,N,07716.3731,E,2,9,1.12,207.4,M,-36.1,M,0000,0000*73
$GPGSA,A,3,07,28,17,15,30,01,13,11,04,,,,1.96,1.12,1.60*02
$GPGSV,3,1,11,30,70,127,43,17,65,252,35,28,54,000,38,40,48,220,26*76
$GPGSV,3,2,11,07,37,137,35,01,36,072,31,13,33,282,32,11,29,053,19*75
$GPGSV,3,3,11,04,17,049,18,06,11,188,17,15,09,309,23*48
$GPRMC,122755.000,A,2832.7631,N,07716.3731,E,0.01,193.66,170415,,,D*68
$GPVTG,193.66,T,,M,0.01,N,0.01,K,D*33
$GPGGA,122756.000,2832.7631,N,07716.3731,E,2,9,0.89,207.4,M,-36.1,M,0000,0000*73
$GPGSA,A,3,07,28,17,15,30,01,13,11,06,,,,1.58,0.89,1.30*04
$GPRMC,122756.000,A,2832.7631,N,07716.3731,E,0.02,193.66,170415,,,D*68
$GPVTG,193.66,T,,M,0.02,N,0.03,K,D*32
$GPGGA,122757.000,2832.7631,N,07716.3731,E,2,10,0.82,207.4,M,-36.1,M,0000,0000*41
$GPGSA,A,3,07,28,17,15,30,01,13,11,06,04,,,1.45,0.82,1.20*06
$GPRMC,122757.000,A,2832.7631,N,07716.3731,E,0.02,193.66,170415,,,D*69
$GPVTG,193.66,T,,M,0.02,N,0.04,K,D*35
$GPGGA,122758.000,2832.7631,N,07716.3731,E,2,9,1.12,207.4,M,-36.1,M,0000,0000*7E
$GPGSA,A,3,07,28,17,15,30,01,13,11,04,,,,1.96,1.12,1.60*02
$GPRMC,122758.000,A,2832.7631,N,07716.3731,E,0.02,193.66,170415,,,D*66
$GPVTG,193.66,T,,M,0.02,N,0.03,K,D*32
$GPGGA,122759.000,2832.7631,N,07716.3731,E,2,9,1.12,207.4,M,-36.1,M,0000,0000*7F
$GPGSA,A,3,07,28,17,15,30,01,13,11,04,,,,1.96,1.12,1.60*02
$GPRMC,122759.000,A,2832.7631,N,07716.3731,E,0.01,193.66,170415,,,D*64
$GPVTG,193.66,T,,M,0.01,N,0.02,K,D*30