$GPGGA,122916.000,2832.7599,N,07716.3734,E,2,9,0.88,207.4,M,-36.1,M,0000,0000*7C
$GPGSA,M,3,07,28,17,15,30,01,13,11,06,,,,1.18,0.88,0.79*01
$GPRMC,122916.000,A,2832.7599,N,07716.3734,E,0.03,181.47,170415,,,D*67
$GPVTG,181.47,T,,M,0.03,N,0.06,K,D*36
$GPGGA,122917.000,2832.7599,N,07716.3734,E,2,8,0.99,207.4,M,-36.1,M,0000,0000*7C
$GPGSA,M,3,07,28,17,30,01,13,11,06,,,,,1.31,0.99,0.86*0E
$GPRMC,122917.000,A,2832.7599,N,07716.3734,E,0.03,181.47,170415,,,D*66
$GPVTG,181.47,T,,M,0.03,N,0.06,K,D*36
$GPGGA,122918.000,2832.7598,N,07716.3735,E,2,9,0.88,207.5,M,-36.1,M,0000,0000*73
$GPGSA,M,3,07,28,17,15,30,01,13,11,06,,,,1.18,0.88,0.79*01
$GPRMC,122918.000,A,2832.7598,N,07716.3735,E,0.04,181.47,170415,,,D*6E
$GPVTG,181.47,T,,M,0.04,N,0.07,K,D*30
$GPGGA,122919.000,2832.7598,N,07716.3735,E,2,9,0.88,207.6,M,-36.1,M,0000,0000*71
$GPGSA,M,3,07,28,17,15,30,01,13,11,06,,,,1.18,0.88,0.79*01
$GPRMC,122919.000,A,2832.7598,N,07716.3735,E,0.05,181.47,170415,,,D*6E
$GPVTG,181.47,T,,M,0.05,N,0.10,K,D*37
$GPGGA,122920.000,2832.7598,N,07716.3736,E,2,9,0.88,207.6,M,-36.1,M,0000,0000*78
$GPGSA,M,3,07,28,17,15,30,01,13,11,06,,,,1.18,0.88,0.79*01
$GPGSV,3,1,11,30,70,128,37,17,65,253,36,28,54,001,40,07,36,138,37*76
$GPGSV,3,2,11,01,36,071,28,13,33,281,23,11,29,052,25,04,17,049,*7C
$GPGSV,3,3,11,06,11,187,18,15,09,308,18,41,,,34*75
$GPRMC,122920.000,A,2832.7598,N,07716.3736,E,0.31,181.47,170415,,,D*60
$GPVTG,181.47,T,,M,0.31,N,0.58,K,D*3C
$GPGGA,122921.000,2832.7598,N,07716.3736,E,2,8,1.09,207.7,M,-36.1,M,0000,0000*71
$GPGSA,M,3,07,28,17,15,30,01,13,11,,,,,1.39,1.09,0.86*0C
$GPRMC,122921.000,A,2832.7598,N,07716.3736,E,0.02,181.47,170415,,,D*61
$GPVTG,181.47,T,,M,0.02,N,0.04,K,D*35
$GPGGA,122922.000,2832.7598,N,07716.3735,E,2,9,0.88,207.8,M,-36.1,M,0000,0000*77
$GPGSA,M,3,07,28,17,15,30,01,13,11,06,,,,1.18,0.88,0.79*01
$GPRMC,122922.000,A,2832.7598,N,07716.3735,E,0.04,181.47,170415,,,D*67
$GPVTG,181.47,T,,M,0.04,N,0.08,K,D*3F
$GPGGA,122923.000,2832.7598,N,07716.3736,E,2,8,1.09,208.0,M,-36.1,M,0000,0000*7B
$GPGSA,M,3,07,28,17,15,30,01,13,11,,,,,1.39,1.09,0.86*0C
$GPRMC,122923.000,A,2832.7598,N,07716.3736,E,0.04,181.47,170415,,,D*65
$GPVTG,181.47,T,,M,0.04,N,0.07,K,D*30
$GPGGA,122924.000,2832.7598,N,07716.3736,E,2,9,0.89,208.0,M,-36.1,M,0000,0000*74
$GPGSA,M,3,07,28,17,15,30,01,13,11,06,,,,1.58,0.89,1.31*09
$GPRMC,122924.000,A,2832.7598,N,07716.3736,E,0.05,181.47,170415,,,D*63
$GPVTG,181.47,T,,M,0.05,N,0.08,K,D*3E
$GPGGA,122925.000,2832.7598,N,07716.3736,E,2,9,0.89,208.0,M,-36.1,M,0000,0000*75
$GPGSA,M,3,07,28,17,15,30,01,13,11,06,,,,1.58,0.89,1.31*09
$GPGSV,3,1,11,30,70,128,38,17,65,253,38,28,54,001,41,07,36,138,34*75
$GPGSV,3,2,11,01,36,071,28,13,33,281,26,11,29,052,25,04,17,049,*79
$GPGSV,3,3,11,06,11,187,17,15,09,308,20,41,,,31*74
$GPRMC,122925.000,A,2832.7598,N,07716.3736,E,0.03,181.47,170415,,,D*64
$GPVTG,181.47,T,,M,0.03,N,0.05,K,D*35
$GPGGA,122926.000,2832.7598,N,07716.3737,E,2,9,0.89,208.0,M,-36.1,M,0000,0000*77
$GPGSA,M,3,07,28,17,15,30,01,13,11,06,,,,1.58,0.89,1.31*09
$GPRMC,122926.000,A,2832.7598,N,07716.3737,E,0.01,181.47,170415,,,D*64
$GPVTG,181.47,T,,M,0.01,N,0.03,K,D*31
$GPGGA,122927.000,2832.7598,N,07716.3737,E,2,9,0.89,208.0,M,-36.1,M,0000,0000*76
$GPGSA,M,3,07,28,17,15,30,01,13,11,06,,,,1.58,0.89,1.31*09
$GPRMC,122927.000,A,2832.7598,N,07716.3737,E,0.03,181.47,170415,,,D*67
$GPVTG,181.47,T,,M,0.03,N,0.05,K,D*35
$GPGGA,122928.000,2832.7599,N,07716.3737,E,2,9,0.88,208.0,M,-36.1,M,0000,0000*79
$GPGSA,M,3,07,28,17,15,30,01,13,11,06,,,,1.18,0.88,0.79*01
$GPRMC,122928.000,A,2832.7599,N,07716.3737,E,0.03,181.47,170415,,,D*69
$GPVTG,181.47,T,,M,0.03,N,0.06,K,D*36
$GPGGA,122929.000,2832.7599,N,07716.3737,E,2,8,0.99,208.0,M,-36.1,M,0000,0000*79
$GPGSA,M,3,07,28,17,30,01,13,11,06,,,,,1.31,0.99,0.86*0E
$GPRMC,122929.000,A,2832.7599,N,07716.3737,E,0.04,181.47,170415,,,D*6F
$GPVTG,181.47,T,,M,0.04,N,0.07,K,D*30
$GPGGA,122930.000,2832.7599,N,07716.3737,E,2,9,0.88,208.1,M,-36.1,M,0000,0000*71
$GPGSA,M,3,07,28,17,15,30,01,13,11,06,,,,1.18,0.88,0.79*01
$GPGSV,3,1,11,30,70,128,36,17,65,253,39,28,54,001,38,07,36,138,33*73
$GPGSV,3,2,11,01,36,071,22,13,33,281,18,11,29,052,24,04,17,049,*7F
$GPGSV,3,3,11,06,11,187,20,15,09,308,16,43,,,*75
$GPRMC,122930.000,A,2832.7599,N,07716.3737,E,0.05,181.47,170415,,,D*66
$GPVTG,181.47,T,,M,0.05,N,0.08,K,D*3E
$GPGGA,122931.000,2832.7599,N,07716.3737,E,2,9,0.88,208.0,M,-36.1,M,0000,0000*71
$GPGSA,M,3,07,28,17,15,30,01,13,11,06,,,,1.18,0.88,0.79*01
$GPRMC,122931.000,A,2832.7599,N,07716.3737,E,0.06,181.47,170415,,,D*64
$GPVTG,181.47,T,,M,0.06,N,0.11,K,D*35
$GPGGA,122932.000,2832.7598,N,07716.3737,E,2,9,0.88,208.0,M,-36.1,M,0000,0000*73
$GPGSA,M,3,07,28,17,15,30,01,13,11,06,,,,1.18,0.88,0.79*01
$GPRMC,122932.000,A,2832.7598,N,07716.3737,E,0.02,181.47,170415,,,D*62
$GPVTG,181.47,T,,M,0.02,N,0.03,K,D*32
$GPGGA,122933.000,2832.7598,N,07716.3737,E,2,8,0.99,208.0,M,-36.1,M,0000,0000*73
$GPGSA,M,3,07,28,17,30,01,13,11,06,,,,,1.31,0.99,0.86*0E
$GPRMC,122933.000,A,2832.7598,N,07716.3737,E,0.00,181.47,170415,,,D*61
$GPVTG,181.47,T,,M,0.00,N,0.01,K,D*32
$GPGGA,122934.000,2832.7598,N,07716.3737,E,2,9,0.88,208.0,M,-36.1,M,0000,0000*75
$GPGSA,M,3,07,28,17,15,30,01,13,11,06,,,,1.18,0.88,0.79*01
$GPRMC,122934.000,A,2832.7598,N,07716.3737,E,0.01,181.47,170415,,,D*67
$GPVTG,181.47,T,,M,0.01,N,0.03,K,D*31
$GPGGA,122935.000,2832.7598,N,07716.3737,E,2,9,0.88,208.0,M,-36.1,M,0000,0000*74
$GPGSA,M,3,07,28,17,15,30,01,13,11,06,,,,1.58,0.88,1.31*08
$GPGSV,3,1,11,30,70,128,39,17,65,253,33,28,54,001,35,07,36,138,33*7B
$GPGSV,3,2,11,01,36,070,22,13,33,281,24,11,29,052,21,04,17,049,*74
$GPGSV,3,3,11,06,11,187,18,15,09,308,16,43,,,*7E
$GPRMC,122935.000,A,2832.7598,N,07716.3737,E,0.01,181.47,170415,,,D*66
$GPVTG,181.47,T,,M,0.01,N,0.02,K,D*30
$GPGGA,122936.000,2832.7599,N,07716.3737,E,2,9,0.88,208.1,M,-36.1,M,0000,0000*77
$GPGSA,M,3,07,28,17,15,30,01,13,11,06,,,,1.18,0.88,0.79*01
$GPRMC,122936.000,A,2832.7599,N,07716.3737,E,0.03,181.47,170415,,,D*66
$GPVTG,181.47,T,,M,0.03,N,0.06,K,D*36
$GPGGA,122937.000,2832.7598,N,07716.3737,E,2,9,0.88,208.0,M,-36.1,M,0000,0000*76
$GPGSA,M,3,07,28,17,15,30,01,13,11,06,,,,1.18,0.88,0.79*01
$GPRMC,122937.000,A,2832.7598,N,07716.3737,E,0.22,181.47,170415,,,D*65
$GPVTG,181.47,T,,M,0.22,N,0.40,K,D*37
$GPGGA,122938.000,2832.7597,N,07716.3737,E,2,9,0.88,208.1,M,-36.1,M,0000,0000*77
$GPGSA,M,3,07,28,17,15,30,01,13,11,06,,,,1.18,0.88,0.79*01
$GPRMC,122938.000,A,2832.7597,N,07716.3737,E,0.18,181.47,170415,,,D*6C
$GPVTG,181.47,T,,M,0.18,N,0.34,K,D*3D
$GPGGA,122939.000,2832.7597,N,07716.3736,E,2,9,0.88,208.1,M,-36.1,M,0000,0000*77
$GPGSA,M,3,07,28,17,15,30,01,13,11,06,,,,1.18,0.88,0.79*01
$GPRMC,122939.000,A,2832.7597,N,07716.3736,E,0.22,181.47,170415,,,D*65
$GPVTG,181.47,T,,M,0.22,N,0.40,K,D*37
$GPGGA,122940.000,2832.7597,N,07716.3737,E,2,9,0.88,208.1,M,-36.1,M,0000,0000*78
$GPGSA,M,3,07,28,17,15,30,01,13,11,06,,,,1.18,0.88,0.79*01
$GPGSV,3,1,11,30,70,128,38,17,65,253,34,28,54,001,37,07,36,138,32*7E
$GPGSV,3,2,11,01,36,070,21,13,33,281,26,11,29,052,21,04,17,049,*75
$GPGSV,3,3,11,06,12,187,16,15,09,308,16,45,,,*75
$GPRMC,122940.000,A,2832.7597,N,07716.3737,E,0.19,181.47,170415,,,D*62
$GPVTG,181.47,T,,M,0.19,N,0.35,K,D*3D